State,District,Latitude,Longitude,District code,Population,Households with Internet,Households with  Electric Lighting,Age 0 to 29,Age 30 to 49,Age 50+,Sex Ratio,Literacy Rate,Percent of Hindu Population,Percent of Christian Population,Percent of Muslims Population,Percent of Buddhists Population,Percent of Jains Population,Percent of Sikhs Population,Percent of Other Religions Population,Percent of people not state their Religion,Percent of Below Primary Education,Percent of Middle Education,Percent of Secondary Education,Percent of Higher Education,Percent of Graduate Education
Andhra Pradesh,Adilabad,19.284513950073435,78.81321233480176,532,2741239,5512,566108,1536378,704551,422522,100.0,54.0,87.54803940845727,0.5625923168319144,10.067345459480185,0.9306010895073359,0.022508070255822275,0.05023275971194048,0.011746513164302712,0.8069343825912296,8.480471786662893,10.278271978473967,8.24287849399487,5.221835819496221,3.6562299018801347
Andhra Pradesh,Anantapur,14.312065561843148,77.4601584478577,553,4081148,8606,897970,2189396,1104565,739612,98.0,57.0,88.19508628454543,0.5014030365965655,10.865962224354519,0.008355492131135652,0.03472062272674257,0.02283671163113908,0.007571399027920575,0.3640642289865499,11.32703347195446,14.26253103293485,8.129893843594989,3.9737593441845283,3.550839126637897
Andhra Pradesh,Chittoor,13.33109263067696,78.92763898886037,554,4174064,13763,944555,2148179,1159053,807430,100.0,64.0,89.54314068974504,0.5780697181451937,9.531957344209383,0.006061239118518547,0.03167177120427478,0.02077112377769004,0.008576773140038102,0.27975134065984614,12.528820832646554,16.128094825570475,13.136741554513778,6.353496256885376,5.903335454367734
Andhra Pradesh,East Godavari,16.782718320784902,82.2432074720511,545,5154296,22411,1297273,2724328,1478954,948122,101.0,64.0,96.68303876998915,1.5099055234701306,1.5089742614704316,0.008012733455742549,0.08049595909897297,0.014318153245370464,0.007818720539138613,0.1874358787310624,12.987612663300672,15.4724718952889,10.118976480978198,5.273445684919919,5.102985936391701
Andhra Pradesh,Guntur,15.884925767634847,80.58657614107885,548,4887813,19383,1186028,2583462,1371811,928462,100.0,61.0,86.28801879286299,1.836465511262399,11.452361209399786,0.006608272452321723,0.06714659501089751,0.015630712549764076,0.006792403882881772,0.3269765025789653,15.063383153160729,13.80897755294648,9.27707340685906,5.044792016388516,4.540353732845344
Andhra Pradesh,Hyderabad,17.38971555555556,78.46668888888888,536,3943323,149034,869721,2249130,1068243,542669,95.0,73.0,51.88646732717558,2.2194986309769704,43.45079010773401,0.03215562103332646,0.4960283496939003,0.29026280626770873,0.048918133259689855,1.5758790238588116,5.857039862065572,17.376588222674126,20.579115634199887,13.121547486726296,14.152784339502494
Andhra Pradesh,Karimnagar,18.515483193277312,79.43765428571413,534,3776269,8831,926768,1940234,1031735,728494,101.0,58.0,92.44942561030477,0.6614730041742259,6.48054998200605,0.00879174656254626,0.008262123275645883,0.05523970882370932,0.003045333899677168,0.33321249095337224,9.013446870442756,12.786218354677592,12.271451000974771,7.7720363671126185,6.795940649355223
Andhra Pradesh,Khammam,17.683921325051784,80.67008643892335,541,2797370,8628,668519,1530602,774583,477955,101.0,58.0,92.77717999406585,1.1962307453071994,5.679870735726772,0.007757286308210926,0.016408269195708827,0.023414850377318695,0.01926809824942714,0.2798700207695085,10.568462520152858,11.783568137214598,8.536982951844054,5.532839774502479,5.748399389426497
Andhra Pradesh,Krishna,16.143872753151673,81.14805061000413,547,4517398,30438,1163932,2340943,1284630,833959,99.0,67.0,89.07069954872252,3.223050083255892,6.796899454066256,0.019103917786300873,0.13990354624498438,0.030836335430263175,0.020055793180056306,0.6994513213137297,13.682677505944794,13.95942974251992,11.772728460055989,6.923299651702153,7.27086699024527
Andhra Pradesh,Kurnool,15.43759715142429,77.90086836581717,552,4053463,10081,816721,2368684,1053618,609027,99.0,52.0,82.11201138384635,0.8181892865433829,16.547258479971326,0.0062909171737844894,0.055138038758464056,0.018181984145408506,0.010706894327146936,0.4322230152341343,12.861274421402143,11.519532804419333,6.706068366727413,3.761055670176341,2.8495141068266814
Andhra Pradesh,Mahbubnagar,16.639546224256293,77.98933089244859,538,4053028,6153,757821,2360874,1027525,637430,98.0,48.0,90.63485374391689,0.52664328990572,8.24499608687628,0.007155144252642715,0.009573089551811633,0.016234775580134163,0.0065876672946745,0.5539562026218422,10.34730083285879,10.895187499321494,7.613443578480089,4.1717698471365114,2.423546050014952
Andhra Pradesh,Medak,17.889304978038055,78.13778901903379,535,3033288,8635,604719,1735769,779738,509368,99.0,54.0,86.94568402340957,1.1308190979557498,11.28969619765746,0.01826400922035758,0.015066159230511578,0.04315449110008677,0.00715395307006786,0.5501620683561864,10.690280645952512,15.889819891813767,12.320920400568623,6.657066523191994,4.203128750056044
Andhra Pradesh,Nalgonda,17.113250515463907,79.16984453608244,539,3488809,7715,789225,1932349,897137,651748,98.0,57.0,93.1329574075279,1.0039242618326196,5.40717476938405,0.006907801487556355,0.0071657691779630234,0.026857302879005413,0.003783526125964477,0.41122916158494205,10.592067378867688,13.5069876281562,10.531502297775544,6.8417330957355365,5.6218038878023995
Andhra Pradesh,Nizamabad,18.429485849056604,78.07523490566035,533,2551335,5261,545913,1399773,676401,437573,104.0,54.0,83.22803551865984,0.7703026062825932,15.34867040196603,0.07239347243697906,0.02124378021702364,0.09238300732753638,0.005722494302002677,0.46124871880799656,10.562587821669831,13.274148631990704,15.536807200935982,8.754828354567316,5.5598343612265735
Andhra Pradesh,Prakasam,15.489039001601704,80.11665790176184,549,3397448,6151,763746,1832695,917391,641707,98.0,56.0,92.72239045306948,0.5526206729286217,6.494698373602775,0.002855084169058658,0.0060045069122470745,0.007829406071851577,0.006063374627073026,0.2075381286188928,14.41685053016264,10.85870924293764,7.3300312469830295,4.180373032935309,3.933158064523725
Andhra Pradesh,Srikakulam,18.570900998697432,84.25874814010675,542,2703114,3988,615432,1423119,747385,528736,101.0,55.0,98.66213559620498,0.6984167149443198,0.3338741910256097,0.002848566505149246,0.005919099231478954,0.0071399134479714875,0.003921403240854807,0.2857445153996465,10.794698262818365,11.81023071908917,9.304860986255111,5.427850989636397,4.484198594657865
Andhra Pradesh,Vizianagaram,18.28329696032972,83.45982854198873,543,2344474,4453,527736,1206366,666394,451469,102.0,53.0,98.06587746334571,0.7614927698067882,0.7004982780785797,0.0048624979419690725,0.03476259493600697,0.016208326473230242,0.007805588801581932,0.4084924806161212,10.682396136617426,10.981908948446433,7.958117684393173,4.911293535351639,4.418517757074722
Andhra Pradesh,Warangal,18.01752608695651,79.87422028985509,540,3512576,12952,828077,1891954,941452,664872,100.0,59.0,93.20097273340136,0.8932760458421398,5.617899797755266,0.007202691130384083,0.01619893775963851,0.041365653013628746,0.0035871109977406897,0.21949703009984692,8.946482581444501,12.934154307266235,12.248617538809125,7.949550415421617,7.08716338094891
Andhra Pradesh,West Godavari,16.63297943925236,81.45912990654196,546,3936966,12050,1017568,2051513,1127764,755533,100.0,67.0,94.82405994870162,2.7716774795616725,2.1880300718878445,0.005308656462870139,0.040081626308177416,0.0073152778052947365,0.005359457003184686,0.1581674822693414,15.121568232999728,14.874271202748513,10.545633363356453,5.482978516959506,5.272740480867755
Arunachal Pradesh,Changlang,27.36048479338845,96.37552644628106,253,148226,170,14593,96630,35018,16414,93.0,49.0,32.16912012737306,24.266323047238675,1.4396934410967037,33.989313615694954,0.06409132001133404,0.06341667453753053,7.918988571505674,0.08905320254206414,13.77963380243682,11.70779755238622,6.768043393196875,3.8056751177256354,2.4509870063281745
Arunachal Pradesh,East Kameng,27.371194055944056,93.04741486013997,247,78690,57,5318,53752,17922,6960,103.0,49.0,15.672893633244378,47.19278180200788,0.8285677976871266,0.5744058965561062,0.02922861863006735,0.045749142203583684,35.41491930359639,0.24145380607446942,14.884991739738213,11.249205744058965,7.895539458635151,5.731350870504511,2.960986148176388
Arunachal Pradesh,East Siang,28.15382352941176,95.06499226006191,251,99214,450,14231,61993,25334,11802,98.0,63.0,28.074666881690085,18.39861309895781,2.307134073820227,0.782147680770859,0.03023766807103836,0.06954663656338823,49.78430463442659,0.553349325700002,10.016731509665973,14.078658253875462,11.023645856431552,9.573245711290745,6.591811639486362
Arunachal Pradesh,Kurung Kumey,28.04853351800553,93.24531994459834,256,92076,95,3911,64379,20713,6836,103.0,40.0,5.277162344150485,55.594291672096965,0.5115339502150398,0.13141318041617794,0.08797080672487945,0.046700551718145876,37.09761501368435,1.2533124809939615,13.750597332638256,13.319431773752118,7.599157217950389,4.727616316955559,2.205786524175681
Arunachal Pradesh,Lohit,27.946785273972623,96.59670770547945,259,145726,312,17157,94890,35493,15195,91.0,57.0,67.94943935879665,7.331567462223624,2.639199593758149,16.779435378724454,0.07136681168768785,0.1441060620616774,4.993618160108697,0.09126717263906235,13.248150638870209,14.165625900662887,8.96888681498154,5.22350164006423,3.5546161975213755
Arunachal Pradesh,Lower Dibang Valley,28.32651730103806,95.76567335640142,258,54080,207,5932,35140,13254,5652,93.0,59.0,53.46708579881657,17.03587278106509,4.154955621301775,5.421597633136095,0.035133136094674555,0.06102071005917159,19.21782544378698,0.606508875739645,10.86353550295858,13.592825443786982,10.184911242603551,6.601331360946745,5.168269230769231
Arunachal Pradesh,Lower Subansiri,27.70849297297297,93.96226108108112,255,83030,381,12493,55258,20305,7412,98.0,65.0,11.503071179091895,41.433216909550765,1.7848970251716247,0.23244610381789715,0.015656991448873902,0.03251836685535348,44.66457906780681,0.33361435625677466,10.227628567987475,14.044321329639889,11.876430205949656,9.242442490666024,6.298928098277731
Arunachal Pradesh,Papum Pare,27.273529716981127,93.54468183962264,248,176573,2477,30539,120592,43812,11856,98.0,69.0,32.296557231286776,47.797228341818965,3.4818460353508183,2.7002995928029767,0.0787209822566304,0.17556478057234118,12.791310109699673,0.6784729262118218,8.703482412373353,12.106041127465694,11.330724402938161,9.821433628017875,7.8381179455522645
Arunachal Pradesh,Tawang,27.680683962264148,91.82504245283016,245,49977,96,8635,30709,13849,5399,71.0,52.0,23.694899653840768,1.5527142485543348,1.5747243732116774,69.87214118494508,0.14406627048442283,2.3290713728315025,0.6983212277647718,0.13406166836744904,9.81251375632791,8.061708385857495,4.28196970606479,3.9798307221321805,2.759269263861376
Arunachal Pradesh,Tirap,26.94406229508198,95.41470327868862,254,111975,98,16026,71785,25669,14423,94.0,43.0,18.470194239785666,74.44608171466845,0.9850413038624692,0.6947979459700826,0.038401428890377315,0.05447644563518643,4.755525787006029,0.5554811341817371,12.132172359901764,10.78544317928109,6.996204509935254,3.8446081714668447,1.905782540745702
Arunachal Pradesh,Upper Siang,28.8309244897959,95.00155765306124,252,35320,97,6198,21090,8910,5252,89.0,52.0,14.89524348810872,15.976783691959229,1.1636466591166479,7.296149490373725,0.019818799546998868,0.07644394110985277,59.36296715741789,1.208946772366931,11.189127972819932,13.915628539071347,8.30973952434881,6.2599093997735,3.8193657984144957
Arunachal Pradesh,Upper Subansiri,28.277196566523585,93.8991435622318,249,83448,139,5373,56054,20055,7230,100.0,54.0,16.146582302751415,10.52032403412904,0.624340906912089,0.3559102674719586,0.013181861758220689,0.03355382993001629,71.24077269676926,1.0653341002780174,12.24594957338702,18.381507046304286,12.40053686127888,9.607180519605024,5.1241491707410605
Arunachal Pradesh,West Kameng,27.46486582278483,92.65015750452083,246,83947,202,14188,53026,22362,8493,82.0,58.0,37.24373711984943,10.084934542032473,2.346718763029054,42.9878375641774,0.0845771736929253,0.390722717905345,6.618461648421027,0.24301047089234873,10.525688827474477,10.03966788568978,6.710186188904904,4.749425232587227,3.207976461338702
Arunachal Pradesh,West Siang,28.106296920289843,94.53510344202908,250,112274,303,14204,70415,28305,13469,93.0,58.0,14.144859896325062,26.692733847551526,1.9755241640985446,2.949035395550172,0.04364322995528796,0.5139212996775745,53.445143131980686,0.23513903486114326,12.671678215793506,14.168908206708588,10.190248855478561,7.497728770686001,5.370789318987477
Assam,Barpeta,26.427872264631056,90.97912010178116,303,1693622,2078,84804,1072312,405046,215355,95.0,53.0,29.107203378321728,0.06022595360712131,70.73809858398154,0.0028932075752440625,0.02355897596984451,0.006613045886272144,0.000826630735784018,0.06058022392245731,12.435301383661763,17.763408836210203,7.1990089878379,5.159179557185724,2.771988082346592
Assam,Bongaigaon,26.45012521994133,90.6734296187684,319,738804,2523,49866,458796,184849,94939,97.0,59.0,48.61167508567902,0.8018364816649612,50.220762204860826,0.03194351952615308,0.11789324367491243,0.051975896178147386,0.0012181850666753294,0.16269538334930508,12.667906508356749,18.08910076285456,7.569531296527902,4.803845133486013,2.7369911370268705
Assam,Cachar,24.815570668693017,92.86849650455927,316,1736617,5316,140205,1048990,444899,241776,96.0,68.0,59.82810256953606,2.1671445114265264,37.706414252538124,0.01963587826216143,0.09633672824808234,0.01612330179884223,0.005643155629594781,0.16059960256061065,14.790538155505791,21.851047179660224,8.991965413214313,4.593183183165891,2.6108808102189487
Assam,Darrang,26.58463215962442,92.04141338028155,325,928500,1166,45444,583436,226525,118102,95.0,52.0,35.252773290253096,0.1817985998922994,64.33947226709746,0.006138933764135703,0.07797522886375875,0.046418955304254175,0.0020463112547119008,0.09337641357027464,12.819278406031234,17.35627355950458,6.358535271943996,5.10479267635972,2.398169089929995
Assam,Dhemaji,27.586533438485816,94.71336908517353,308,686133,1192,28195,434221,169630,82051,95.0,62.0,95.47012022450457,1.2695789300325155,1.9639049572021752,0.13277309209730476,0.024339304478869256,0.04328606844445611,0.9203754957129303,0.1756219275271704,11.52939736173599,19.8753011442388,11.776725503655996,8.074090591765737,4.081715935540195
Assam,Dibrugarh,27.30612284482757,95.0998282327587,310,1326335,8817,136685,767147,371864,186774,96.0,67.0,90.35432224890394,3.9935612043714444,4.864985090493729,0.3523242619700151,0.07954249868999913,0.17046975311667115,0.003468203734350673,0.18132673871985586,10.795839663433446,22.715754315463286,10.54130366762545,6.747918135312722,4.476998646646586
Assam,Goalpara,26.017277777777807,90.59869891598912,302,1008183,1364,78641,650509,239831,117427,96.0,56.0,34.50544196837281,7.723002669158278,57.522195871186085,0.019242538309017312,0.04731283903815081,0.07647421152707395,0.010216399205303007,0.0961135032032875,12.368786222342571,18.24113281021402,7.308494588780014,3.9561270126554406,1.8145515248719726
Assam,Golaghat,26.377219709794485,93.82583397823468,313,1066888,3073,82345,629153,289085,148244,96.0,68.0,85.99084439978705,4.741078726164321,8.464993513845878,0.3620811181679801,0.0496771919826636,0.1060092530799859,0.1262550520766941,0.1590607448954342,11.003310563058164,24.481670053463905,10.417682080968198,6.204681278634683,3.4574388314424755
Assam,Hailakandi,24.457496089385486,92.59154664804475,318,659296,1211,44143,419921,156243,82841,95.0,62.0,38.10033732951512,1.286220453332039,60.314790321797794,0.07432170072319565,0.03746420424210067,0.012740862981119254,0.09646653399990292,0.07765859340872688,13.437970198514778,21.08749332621463,7.592340921225064,4.323399504926467,1.76066592243848
Assam,Jorhat,26.76244824016563,94.30197722567289,312,1092256,5651,122063,604908,315550,171062,96.0,73.0,92.30610772566138,1.9272954325725837,5.006518618345882,0.21771452846219203,0.06582705885799667,0.14099258781824042,0.052917997246066856,0.2826260510356547,9.105374564204729,27.048970204787153,11.723442123458238,8.882990800691413,5.731989570210646
Assam,Kamrup,26.170939452054807,91.58863273972592,321,1517542,3109,122191,895775,408232,212740,95.0,66.0,57.823440800979476,2.194140261027372,39.65517923062426,0.012190766384060539,0.087641725896219,0.021020835008190877,0.0036242818979639446,0.20276209818245555,10.796999358172624,23.318036667189443,10.202748918975555,7.831677805293033,3.625006754343537
Assam,Karbi Anglong,26.08966454598031,93.11536570271832,314,956313,1923,53918,618633,233739,103123,95.0,58.0,80.09929803317533,16.499723416914755,2.1216902834113935,0.6545973964591091,0.04151360485531411,0.03869026145205597,0.37309960232685324,0.17138740140518846,11.431822008066396,20.83930679599671,9.739175353676046,4.245681068855071,1.9057567971992433
Assam,Karimganj,24.69660712250711,92.3679498575498,317,1228686,1933,70951,779850,284368,163990,96.0,65.0,42.481317439931765,0.9758392298764696,56.36012781133667,0.036298940494153914,0.042647185692683075,0.009278204520927234,0.008952653485105226,0.08553853466223266,16.11957815096778,20.9924260551516,6.241220295502675,3.225966601719235,1.742349143719388
Assam,Kokrajhar,26.497246635730868,90.13997470997688,300,887142,1218,41373,552671,224715,108956,96.0,55.0,59.637352306620585,11.395131782736021,28.436372080230672,0.1936555816318019,0.04463772428765632,0.010483101916040499,0.013864747695408401,0.26850267488181145,13.177033665410947,17.439710891830167,8.881103588827944,4.460503504512243,1.9486170195977643
Assam,Lakhimpur,27.14128805970149,94.0775949253732,307,1042137,1948,60296,639385,268872,133615,97.0,66.0,76.48994326081888,4.434829585745445,18.565313389698286,0.1030574674922779,0.02398916841067921,0.03953414954079934,0.2312555834789476,0.11207739481469328,12.181699718942902,20.870288647269987,10.298645955378227,7.953368894876585,4.242436455091797
Assam,Nagaon,26.26462170626351,92.9306191144708,305,2823768,5121,195631,1778277,678034,366112,96.0,61.0,43.390462672570834,0.9506446705253406,55.35876176796394,0.03799887242861312,0.04115068943340955,0.10751591490519051,0.002160234126882945,0.11130517804578846,13.90397511410286,20.40585487192999,7.075368798003236,4.103169948805992,2.372503690104853
Assam,Nalbari,26.46323767605632,91.40598521126763,323,771639,1631,68313,442061,211320,117809,95.0,69.0,63.70621495284712,0.055595945772569814,35.96085734391341,0.0034990455381337647,0.1301126563069,0.008034845309788645,0.001166348512711255,0.13451886179936473,9.831799585039118,24.982018793762368,10.562840913950694,9.296316023425462,5.101867583157409
Assam,Sonitpur,26.73514926829268,92.85197804878044,306,1924110,4358,133368,1159991,501239,261648,96.0,58.0,73.94712360519928,7.180774487945076,18.2180852446066,0.2644339460841636,0.0521279968400975,0.07083794585548643,0.011485829812224874,0.25513094365706745,11.231010701051396,19.62741215419077,7.347448950423832,4.69749650487758,2.593458793935898
Assam,Tinsukia,27.53549291139241,95.69055949367085,309,1327929,5135,161718,799874,352158,175377,95.0,60.0,88.96160864022097,5.789240237994652,3.6427399356441494,1.2220532874875087,0.06303047828611319,0.15053515662358455,0.029745566216266082,0.1410466975267503,11.363032210306425,20.806232863353387,8.268890881967334,4.596631295799701,2.8730451703366673
Bihar,Araria,26.211528119180603,87.30766554934816,209,2811569,2561,43290,1872943,612012,324091,92.0,43.0,56.67742815488433,0.14639512670683166,42.94548702165943,0.006651090547662177,0.0679335986418971,0.013195479107928705,0.002240741735308648,0.14066878671659847,22.242278243927146,7.332596141158193,4.017507662091878,2.4248737982244077,1.4094265515091395
Bihar,Aurangabad,24.774291867469877,84.45986024096379,235,2540073,2362,44456,1626969,564571,340948,93.0,58.0,90.19949426650336,0.08732032504577623,9.344337741474359,0.013149228388317974,0.030510934134570147,0.011613839444771863,0.0007480099981378487,0.3128256550107024,22.027398425163373,11.915484318757768,9.965934049926911,5.385002714488914,3.597180081044915
Bihar,Aurangabad,24.774291867469877,84.45986024096379,515,3701282,23258,589477,2211996,909771,571932,92.0,68.0,68.77179312465248,0.43203949334311736,21.254176255686545,8.350971366137463,0.8370343032495228,0.13892483739417855,0.02715275409979569,0.18790786543689458,10.31250793643932,11.427499985140283,14.53377505415691,8.396063850309163,6.842304909488119
Maharashtra,Aurangabad,20.0979228832952,75.32072196796334,235,2540073,2362,44456,1626969,564571,340948,93.0,58.0,90.19949426650336,0.08732032504577623,9.344337741474359,0.013149228388317974,0.030510934134570147,0.011613839444771863,0.0007480099981378487,0.3128256550107024,22.027398425163373,11.915484318757768,9.965934049926911,5.385002714488914,3.597180081044915
Maharashtra,Aurangabad,20.0979228832952,75.32072196796334,515,3701282,23258,589477,2211996,909771,571932,92.0,68.0,68.77179312465248,0.43203949334311736,21.254176255686545,8.350971366137463,0.8370343032495228,0.13892483739417855,0.02715275409979569,0.18790786543689458,10.31250793643932,11.427499985140283,14.53377505415691,8.396063850309163,6.842304909488119
Bihar,Banka,24.832355642023337,86.8664916342413,225,2034763,1704,62359,1291235,462080,278863,91.0,47.0,87.11849979579931,0.30165675314520657,12.331903027527039,0.005553472320855057,0.004619702638587393,0.00683126241237923,0.05086587479721225,0.18007011135940648,20.060714687656496,9.647560919871259,5.929584919717923,3.101245697901918,1.757796853982503
Bihar,Begusarai,25.54302613168723,86.12560144032932,222,2970541,4644,120373,1951688,644874,369996,89.0,52.0,85.98871384034086,0.07436355869183425,13.712922999547894,0.007709033472354026,0.00929123684877603,0.013532888453652046,0.0019188423926820063,0.19154760025194065,19.444303243079293,9.825718614892034,6.973005927203159,4.873960669117174,3.4281970859853477
Bihar,Bhagalpur,25.277192885375477,87.04213814229242,224,3037766,6764,174534,1952879,674660,397654,88.0,52.0,81.89788153531246,0.11705970769308761,17.68069034942125,0.0059254070260843,0.03456487431882509,0.01366135508791658,0.0010534056935260978,0.2491633654468448,20.233421534114214,9.90092719452387,8.13357579221046,5.090681770748636,3.9121841511163136
Bihar,Bhojpur,25.50666439393939,84.49407803030304,231,2728407,3661,62153,1722387,613072,387389,91.0,59.0,92.29620067680519,0.07935033153044982,7.250347913636052,0.023713470900785696,0.05395089515603794,0.019938374296796627,0.001759268320305585,0.27473906935438885,21.315734785902542,13.453234799646827,11.49055107980591,5.985287385642978,4.806357702498198
Bihar,Buxar,25.48593018867924,84.08808081760995,232,1706352,1784,46760,1074754,375372,253998,92.0,58.0,93.26645381492213,0.12453467983159394,6.178268024417002,0.2982971860436768,0.005684641855842171,0.014533929693287201,0.003340459647247461,0.10888726358922425,19.437665850891257,15.010033099852786,10.434189428675912,5.233738408018978,3.7575482667116753
Bihar,Darbhanga,26.146187719298258,85.97387352472099,215,3937385,6280,127442,2535344,865971,529314,91.0,46.0,77.27791414860371,0.08975500236832314,22.38734591613469,0.006222403955925062,0.005993825851421692,0.021130775882978167,0.002565154283871148,0.20907277291908208,17.08740699728373,8.441694170115445,5.704852332195099,3.8741448956604447,3.2914485121470216
Bihar,Gaya,24.7266541547278,84.94291217765044,236,4391418,6856,112617,2810026,936630,537333,94.0,52.0,88.2720569984456,0.089788765268986,11.115339054492193,0.019811368446365163,0.03923561819895077,0.020790551024748725,0.0024593422898936063,0.4405183018332575,20.546256357285962,10.189874887792508,7.793701260048577,4.368156253856954,2.9868028960121764
Bihar,Gopalganj,26.44874364161851,84.34636127167629,217,2562012,3707,69375,1642807,546202,370662,102.0,54.0,82.71866017801635,0.09613538109891757,17.020099827791597,0.0065183145121880766,0.005191232515694696,0.010577624148520773,0.0010928910559357256,0.14172455086080782,21.100720839715038,11.382616474864287,8.734385319038317,4.81063320546508,3.087768519429261
Bihar,Jamui,24.78418380462726,86.26316298200514,238,1760405,1839,32633,1135919,392052,227016,92.0,49.0,86.67016964846157,0.4796055453148565,12.36198488416018,0.009032012519846287,0.004942044586330987,0.009202427850409423,0.19529596882535552,0.2697674682814466,23.884958290847845,8.746453230932655,5.919717337771706,3.188868470607616,1.6833058301924841
Bihar,Jehanabad,25.155679045643165,84.9208124481328,239,1125313,1106,27641,714244,254582,155106,92.0,55.0,92.87344943140265,0.061405137948286385,6.730749578117377,0.022038312896056473,0.005331849894207212,0.013151896405711122,0.0051541215644003045,0.2887196717713205,18.817964424120223,10.44669349772019,10.038629252483531,6.109233608782623,4.045007922240301
Bihar,Katihar,25.56565356037151,87.70466083591326,212,3071029,2941,60900,2054202,660403,353483,92.0,42.0,54.854219872231745,0.2819576109505967,44.4686455256528,0.006903223642629229,0.016509124466099145,0.08967678260283443,0.06971604631542067,0.21237181413786715,15.3894997409663,7.725195691737199,4.357204051150282,2.8817051222896297,1.8597675241751217
Bihar,Khagaria,25.53558891454964,86.56593256351037,223,1666886,1580,40641,1114645,355531,195796,89.0,46.0,89.20760027980317,0.07517010761383802,10.53389373958387,0.004739376298079173,0.005159321033352011,0.008578871020573692,0.006899092079482341,0.1579592125676261,21.03329201877033,7.799213623487149,6.032506122194319,3.955339477324784,2.321514488693288
Bihar,Kishanganj,26.324336758321294,87.95045007235886,210,1690400,1093,58718,1139615,361114,188447,95.0,44.0,31.42664458116422,0.34210837671557026,67.97769758637008,0.010825840037860862,0.08731661145291056,0.023544723142451488,0.0016564126833885473,0.13020586843350687,21.08382631329863,5.26650496923805,2.530643634642688,1.5374467581637483,0.9101987695220066
Bihar,Lakhisarai,25.183449321266963,86.12825701357468,227,1000912,1186,44491,650642,218840,130655,90.0,51.0,95.55245615998209,0.04865562606902505,4.084874594369935,0.005195261921127931,0.007792892881691897,0.013987243633805968,0.005195261921127931,0.2818429592211903,17.191920968077113,11.158223699985612,8.572881532042777,4.795726297616574,2.723616062151318
Bihar,Madhepura,25.77341929460581,86.8978443983403,213,2001762,1397,23236,1311771,444235,242382,91.0,42.0,87.61426183532308,0.06704093693456066,12.077359845975694,0.002997359326433412,0.006644146506927397,0.008492518091561334,0.004046435090685106,0.21915692275105633,17.025650401995843,5.718661858902307,4.96747365570932,3.9910338991348624,2.2457714753302342
Bihar,Madhubani,26.41380538172716,86.16328360450552,207,4487379,5319,113281,2860455,1009424,611899,93.0,48.0,81.3875538482486,0.0726927678718468,18.24922744435003,0.0073093892893825105,0.009849847761911798,0.012568584021987,0.0037661182619074525,0.25703200019432276,17.468727290474014,11.607555323497303,6.754811661774056,3.8009492846492354,3.0703891960095193
Bihar,Munger,25.198537962962963,86.54173672839504,226,1367765,2653,90461,860147,316713,188319,88.0,59.0,91.55951497516021,0.13269823398025246,8.072731792376613,0.006945637591252883,0.010601236323491242,0.024711847429931308,0.004459830453330799,0.1883364466849203,16.574411539994077,10.704616655638944,10.758573292926782,7.450622000124291,4.713455893373497
Bihar,Muzaffarpur,26.18664417177915,85.32745092024543,216,4801062,10290,180651,3016735,1079189,697108,90.0,52.0,83.99751971542962,0.1072471049113717,15.528772592397267,0.005998672793644406,0.007956572941570011,0.019433200404410524,0.0020412150478373325,0.33103092607427276,22.7647966220807,8.73625460366894,6.237682412766175,4.059935072698498,2.8934431590343967
Bihar,Nalanda,25.229345508982053,85.48053113772461,229,2877653,4156,101378,1829128,642197,403129,92.0,53.0,92.77612693399794,0.06873657108761898,6.8817539849314695,0.01438672418112955,0.019495053781675552,0.01365696280962298,0.002224034656020027,0.2236197345545137,20.224050641269116,11.149328984418899,9.540969672159916,6.163286539412501,4.62293403686963
Bihar,Nawada,24.825708836206903,85.61594568965519,237,2219146,1841,31162,1440781,485628,288805,94.0,49.0,88.53045270568047,0.058536031428306205,11.01297526165471,0.007930978854027632,0.012572403978827891,0.01126559496310743,0.0036049903881943774,0.36266203305235434,27.08298597748864,8.79040856257317,7.260766078482443,4.323419910181665,2.910353802769173
Bihar,Pashchim Champaran,27.16064352201258,84.30265911949685,203,3935042,3495,57546,2544205,888205,497793,91.0,45.0,77.44331572572796,0.21522006626612883,21.984263446235136,0.0339767656863637,0.00752215605322637,0.02353215035570141,0.04815704635427017,0.2440126433212149,26.77178540915192,6.35934762576867,4.054924953787024,2.509045646780898,1.7958893450184268
Bihar,Patna,25.40297114503818,85.3198433587787,230,5838465,40692,546859,3626564,1382654,815638,90.0,59.0,91.73772558369366,0.21497088703965853,7.5354052820390285,0.018189712535743557,0.03684187539019246,0.08226477336080631,0.0034769412850809245,0.3711249446558299,21.321391838436988,15.758439932413742,11.961208982155412,7.9363497083565635,7.747584339376874
Bihar,Purba Champaran,26.68129336734693,85.00382155612242,204,5099371,7719,74979,3316422,1122340,648009,90.0,45.0,80.13641290268937,0.09540392334662452,19.421003100186276,0.017217809804385677,0.009099161445597899,0.013099654839783181,0.0020394672205650464,0.3057239804673949,25.116999724083616,8.836991856446609,4.728387089309642,2.3844901655517905,1.3488134124777351
Bihar,Purnia,25.81714801901739,87.40447606973065,211,3264619,4170,86058,2155512,696556,372692,92.0,41.0,60.93881093015755,0.24471462060350688,38.462099252623354,0.010812900372141436,0.04441559642947615,0.01880770772944714,0.01991043977873069,0.2604285523057974,20.482941500983728,5.646202512452449,3.653075596264067,2.5493327092686773,1.8377642230226559
Bihar,Rohtas,24.99170460829495,83.9350762672811,234,2959918,4594,114893,1875174,673742,407193,92.0,61.0,89.37460429647037,0.09760405524747645,10.151869072048617,0.053514996023538486,0.008513749367381123,0.08679294493969089,0.018142394485252632,0.20895849141766765,18.081142788415082,13.481893755164839,11.252102254184068,6.58558784398757,5.458090393044672
Bihar,Saharsa,25.821270696721303,86.54670819672135,214,1900661,1668,41342,1249692,415863,233870,91.0,42.0,85.72038885419335,0.06797635138512338,14.027751398066252,0.0031567965039530983,0.005734846982181462,0.01036481518797934,0.0004209062005270797,0.164206031480627,18.325203705447738,5.4813562229140285,4.744770371991638,3.396713038253534,2.475507205124954
Bihar,Samastipur,25.793205563909765,85.94833323308269,221,4261566,5379,88021,2766930,913339,568812,91.0,50.0,89.18313127146217,0.049887764263184,10.61511190956564,0.006851941281679083,0.005420542589273521,0.012999915993322642,0.0026281418614659494,0.12396851298325545,18.327488064246804,10.299218644038364,6.6661410382943735,4.368182963727419,3.0489496114808503
Bihar,Saran,25.89656077844312,84.82266287425155,219,3951862,4509,94787,2516115,847031,585386,95.0,55.0,89.44573469417708,0.05895954868869409,10.284999830459666,0.005794736759532595,0.008148057801613519,0.009387979640989487,0.0027075844247597715,0.1842675680476697,20.090402954354175,10.976066471956763,9.139261441821601,5.396215758546225,3.746714839738837
Bihar,Sheikhpura,25.12472436548223,85.77839390862943,228,636342,631,20065,413475,136898,85045,93.0,52.0,93.67635642468987,0.049187386656860614,5.917101181440168,0.0064430762074481965,0.0067573726078115235,0.011786115013624749,0.004871594205631563,0.32749684917858635,20.37787856215683,9.354875208614235,8.306853861602722,5.3204094653503935,3.0920479867744075
Bihar,Sheohar,26.458380748663107,85.29539411764709,205,656246,478,10004,421241,139909,93398,89.0,43.0,84.18977029955231,0.07954334197846538,15.137920840660362,0.01112387732649037,0.007923857821609578,0.03291448633591672,0.006704802772131183,0.5340984935527227,19.536728604821974,5.647729662352228,3.909661925558403,2.4428339372735226,1.5376855630358128
Bihar,Sitamarhi,26.56570069686413,85.61172491289203,206,3423574,3460,66263,2206340,739982,449035,90.0,42.0,78.05617755012744,0.08461917282932982,21.617788895464212,0.007389938117300809,0.005491337415227479,0.00762361204986368,0.0005841848314071785,0.22032530916521742,21.421473582869833,5.734387514334435,3.9870614743539936,2.7101210606226127,2.0606827835472523
Bihar,Siwan,26.1736372013652,84.33766552901022,218,3330464,3834,52935,2115448,713597,498299,99.0,58.0,81.44916143816597,0.07860766547844383,18.26418180770007,0.01222051942311942,0.010779278803193789,0.011079537265678296,0.0025822227773667572,0.1713875303861564,20.714230809881144,13.369218223046397,10.667492577610806,5.609338518596808,3.577999942350375
Bihar,Supaul,26.28157893772896,86.78496465201461,208,2229076,1845,51028,1453438,495020,277610,93.0,46.0,81.19669315895915,0.1685900346152397,18.359670105460737,0.006101182732217296,0.024494454204342965,0.012157503826697698,0.001884188784949459,0.2304093714166767,20.98483856091044,7.078583233590958,4.465078803952849,3.1252859929405727,2.051343247157118
Bihar,Vaishali,25.8134703180212,85.39247597173153,220,3495021,4810,70001,2176701,759132,486032,89.0,55.0,90.19533788208997,0.06303252541257978,9.55587963563023,0.010357591556674482,0.007038584317519122,0.020228776880024467,0.0020314613274140555,0.14609354278557984,23.181291328435506,10.593555804099603,8.33734618475826,5.102115266260203,3.5607225249862586
Chandigarh,Chandigarh,30.7426,76.75872465753424,55,1055450,44283,231204,602411,303748,148945,82.0,76.0,80.7782462456772,0.8261878819460894,4.87441375716519,0.10990572741484675,0.18570278080439623,13.106163247903737,0.023307593917286467,0.09607276517125397,7.618172343550144,10.82088208820882,11.815528921313184,9.359609645175043,16.535885167464116
Chhattisgarh,Bastar,19.393866751269048,81.52895126903546,414,1413199,1782,157646,864272,358157,189569,102.0,46.0,90.43135467828664,1.9778530836775288,0.8783617876887827,0.06970002101614847,0.24525916024565544,0.14852826813491943,6.150938402871783,0.09800459807854378,12.996541888297402,9.859191805258849,4.311919269685303,4.062626707208255,2.327697656168735
Chhattisgarh,Bilaspur,22.356942982456143,81.99770350877188,30,381956,1574,79146,193671,107367,80497,98.0,75.0,97.38634816575731,0.06178722156478757,1.8284828619003237,0.029584559478055064,0.0026181026086774394,0.6249410926913047,0.0018326718260742074,0.064405324173465,9.377258113499984,14.010776110337316,16.946978185969066,11.96341987035156,6.669354585344908
Chhattisgarh,Bilaspur,22.356942982456143,81.99770350877188,406,2663629,8566,519704,1625484,655032,380114,97.0,60.0,95.38727052453626,0.7788246786620809,2.176466767706764,0.11183989962566109,0.08848829923386478,0.2392600471011541,1.093320428633267,0.12452935450094589,14.344752966723217,12.681683522742846,7.106695414413943,5.737961255114732,5.054645372910416
Himachal Pradesh,Bilaspur,31.3780422907489,76.65316079295157,30,381956,1574,79146,193671,107367,80497,98.0,75.0,97.38634816575731,0.06178722156478757,1.8284828619003237,0.029584559478055064,0.0026181026086774394,0.6249410926913047,0.0018326718260742074,0.064405324173465,9.377258113499984,14.010776110337316,16.946978185969066,11.96341987035156,6.669354585344908
Himachal Pradesh,Bilaspur,31.3780422907489,76.65316079295157,406,2663629,8566,519704,1625484,655032,380114,97.0,60.0,95.38727052453626,0.7788246786620809,2.176466767706764,0.11183989962566109,0.08848829923386478,0.2392600471011541,1.093320428633267,0.12452935450094589,14.344752966723217,12.681683522742846,7.106695414413943,5.737961255114732,5.054645372910416
Chhattisgarh,Dhamtari,20.554912627291245,81.7569195519348,412,799781,1016,148926,461125,213021,125429,101.0,68.0,97.17510168408602,0.33059049914914207,1.303481828150456,0.08339783015600521,0.45162363196925165,0.1495409368314576,0.4607511306220078,0.045512459035661014,17.895899002351896,15.022362371699252,8.15173153650812,7.361390180561929,3.915946990488646
Chhattisgarh,Durg,21.194463849287164,81.33181639511197,409,3343872,16141,614109,1919832,898241,523656,99.0,69.0,93.59643550949318,0.7268220793140407,2.497075246899403,0.5857580672944419,0.5146429049915786,0.7259847266881029,1.2730451404838463,0.0802363248354004,13.864107238554585,14.882985951615375,9.255976305313123,8.560255894962486,6.053580998315725
Chhattisgarh,Jashpur,22.77286167664669,83.8703962075848,402,851669,567,76783,488965,214455,148100,101.0,58.0,73.91474857016047,22.260760929422112,1.800699567555001,0.054833509262401235,0.08148705659123438,0.05565542481879698,1.7418738970186773,0.08994104517130481,14.180156844971462,14.947004059088684,7.536730819132785,5.9368134803544566,3.071733267266978
Chhattisgarh,Korba,22.491712499999995,82.57604326923074,404,1206640,4544,202380,729708,309479,166959,97.0,62.0,93.9116886561029,1.7452595637472652,2.5024033680302327,0.07433865941788768,0.06240469402638732,0.30381886892528015,1.2969071139693695,0.10317907578068024,14.767536299144732,13.95503215540675,7.389693694888284,6.89236226214944,5.073178412782603
Chhattisgarh,Koriya,23.50412776859501,82.12515636363635,400,658917,1667,80023,399581,165022,94073,97.0,60.0,91.70487329967204,1.42627978941202,3.927353521004922,0.01274819135035217,0.17528763106734233,0.21110397819452226,2.3483989637541605,0.1939546255446437,21.76495673961971,13.350543391656307,7.152190640095793,5.869783295923462,4.067583625858796
Chhattisgarh,Mahasamund,21.223727037773354,82.65925427435384,411,1032754,961,212487,582544,272009,177826,102.0,62.0,97.60901434417102,0.5116416881464512,1.217133993187148,0.05044763806288816,0.14475857755089788,0.28477255958340514,0.13720595611345976,0.045025243184727434,17.406855843695595,14.73564856684167,7.609072441259003,5.61111358561671,3.229907606264416
Chhattisgarh,Raigarh,22.008265068493166,83.27797698630134,403,1493984,3342,297308,841958,398257,253488,99.0,64.0,95.24774027031079,3.1896593270075178,1.1601195193522822,0.052276329599246045,0.027376464540450233,0.14170165142330843,0.11927838584616703,0.06184805192023476,16.498168655085998,14.120900893182256,8.74842033114143,6.247724205881723,4.441680767665517
Chhattisgarh,Raigarh,22.008265068493166,83.27797698630134,520,2634200,38570,547206,1414154,748339,462741,96.0,74.0,85.01138865689774,0.6625161339306052,8.635069470807077,4.623453040771391,0.46541644522056036,0.2838432920810873,0.043998177814896365,0.27431478247665325,8.779249867132338,12.750968035836308,16.74405891731835,8.405208412421228,7.7635335206134695
Maharashtra,Raigarh,18.453257637845976,73.0090609418579,403,1493984,3342,297308,841958,398257,253488,99.0,64.0,95.24774027031079,3.1896593270075178,1.1601195193522822,0.052276329599246045,0.027376464540450233,0.14170165142330843,0.11927838584616703,0.06184805192023476,16.498168655085998,14.120900893182256,8.74842033114143,6.247724205881723,4.441680767665517
Maharashtra,Raigarh,18.453257637845976,73.0090609418579,520,2634200,38570,547206,1414154,748339,462741,96.0,74.0,85.01138865689774,0.6625161339306052,8.635069470807077,4.623453040771391,0.46541644522056036,0.2838432920810873,0.043998177814896365,0.27431478247665325,8.779249867132338,12.750968035836308,16.74405891731835,8.405208412421228,7.7635335206134695
Chhattisgarh,Raipur,20.88603153846152,82.20032759615388,410,4063872,20261,728556,2454299,1038155,560184,98.0,65.0,95.511989550852,0.5704165879240292,2.535463715392611,0.20662560238117736,0.42169143122618036,0.41111038930360017,0.2628035528678069,0.07989917005260008,15.219672273142463,13.59228341837538,7.708092184005795,6.576609696368389,5.595205754511953
Chhattisgarh,Surguja,23.32719278728607,83.23582493887531,401,2359886,2737,253131,1441436,561915,355077,98.0,50.0,90.09736063521713,4.128674012219234,3.451098909015096,0.054536532696918404,0.026399580318710307,0.09758945982983924,2.0464971613035545,0.09784370939952185,15.443627361660692,11.918372328154835,5.736463541035457,4.491403398299748,2.737716991413992
Daman and Diu,Daman,20.431616666666677,72.8392366071429,495,191173,1316,49249,122589,52868,15428,53.0,79.0,89.72867507440905,1.3694402452229133,8.414891224179147,0.11298666652717695,0.1276330862621814,0.08840160482913383,0.04132382710947676,0.11664827146092806,4.685285055944092,15.904965659376586,14.118625538125155,7.412134558750451,4.774732833611441
Daman and Diu,Junagadh,20.72568199498111,70.83985639899612,479,2743082,6628,498326,1527888,749156,461650,95.0,67.0,87.38550287596215,0.09427352153526582,12.207363833819041,0.0470638500781238,0.1400249792022258,0.04046543267755029,0.002807061546100335,0.08249844517954623,9.907177401185965,10.747436642433584,11.368562806361604,5.012792180474372,5.102180685812527
Gujarat,Junagadh,20.929523011609785,70.54733890140345,479,2743082,6628,498326,1527888,749156,461650,95.0,67.0,87.38550287596215,0.09427352153526582,12.207363833819041,0.0470638500781238,0.1400249792022258,0.04046543267755029,0.002807061546100335,0.08249844517954623,9.907177401185965,10.747436642433584,11.368562806361604,5.012792180474372,5.102180685812527
Goa,North Goa,15.548723418714054,73.80667997909038,585,818008,23440,173951,380926,260533,175035,96.0,81.0,76.06441501794603,16.40191782965448,7.083182560561754,0.06760325082395281,0.0667475134717509,0.07554938338011365,0.020293200066503016,0.22029124409541226,5.008263977858407,18.18955315840432,18.812407702614156,10.698306129035414,10.608820451633724
Goa,South Goa,15.195278658183785,73.941792596877,586,640537,17624,138810,314480,194872,130605,99.0,78.0,53.340244201349805,36.213520842667954,9.93275954394516,0.08461650146673806,0.08789500060105818,0.1334817504687473,0.014362948588450003,0.19311921091209408,4.66389919707995,18.71382917770558,17.015254388114972,10.114325948383934,8.970598107525404
Gujarat,Ahmadabad,22.605425564971743,72.23898135593227,474,7214225,126341,1456046,3952858,2043895,1198152,90.0,75.0,83.75696627149833,0.7035267128485735,12.243006005496087,0.06262626962702161,2.901032335420645,0.20157397364235244,0.028485388243366407,0.10278304322363109,10.553566044862754,11.161268188890698,15.733609639289043,7.612570996884626,11.63388998818307
Gujarat,Amreli,21.04832649310872,71.43457637825426,480,1514190,2538,273331,836343,389892,282409,96.0,66.0,93.14967078107767,0.06069251547031747,6.545083509995443,0.016048184177679156,0.13558404163282017,0.027407392731427366,0.0026416764078484203,0.06287189850679241,15.220943210561423,7.966305417417893,9.871812652309156,4.410608972453919,3.36807137809654
Gujarat,Anand,22.282718206229863,72.57782051557454,482,2092745,9902,378310,1134962,585093,366419,92.0,74.0,85.95380708113028,1.423441460856435,11.98994621896122,0.012758362820123808,0.410513464373347,0.07282301474857185,0.0067853465185677185,0.12992505059144807,12.305560400335445,10.943187058146119,13.550193645188497,6.090517478240302,5.2730265751441285
Gujarat,Banas Kantha,24.258538965517253,71.93205252873561,469,3120506,3424,396873,1984701,738412,394793,94.0,55.0,92.62295922520258,0.05402969902958046,6.841999342414338,0.00900494983826341,0.40567138790952495,0.01557439722916732,0.002659825041195242,0.0481011733353501,11.756651004676806,5.109203443287724,7.266930427308904,3.3767600510942777,2.1454853796147164
Gujarat,Bharuch,21.75787276237761,72.67326346710801,488,1551019,10257,309091,844298,442523,254728,93.0,72.0,76.607959025647,0.6121137136295558,22.147439844386174,0.028497394293686928,0.31031212383600715,0.11173299617864127,0.022050020019097123,0.1598948820098271,10.423792358443063,10.623016223527888,12.155814983568867,5.409024647667114,4.7955569854398945
Gujarat,Bhavnagar,21.70219390341736,72.16272632761141,481,2880365,7297,500757,1708938,720241,445121,93.0,66.0,91.39723611417303,0.1200195114160879,7.390139791311171,0.01544943088809925,0.9364785365743579,0.04895212933083133,0.004409163421996865,0.0873153228844261,14.66692589307258,9.268026795215189,9.764387499500932,3.341277928318113,3.2423321349898364
Gujarat,Gandhinagar,23.193679790026252,72.67221679790026,473,1391753,12107,262539,769329,391862,224886,92.0,74.0,94.81466898221164,0.23258437380770872,4.115169861318782,0.03571035952500192,0.4602109713433346,0.14262588260991715,0.005891850062475166,0.19313771912113717,9.781261473839107,9.598973381052529,14.115723120410015,6.878375688789605,7.7887383752720485
Gujarat,Jamnagar,22.410600414263328,69.62062005768233,477,2160119,11573,386538,1220598,576319,358455,94.0,65.0,83.81218812482089,0.20332213178996159,14.851265138633565,0.05027500799724459,0.8729148718195618,0.08670818598419809,0.006295949436119028,0.11703058951844783,11.841245783218426,8.983625439154046,9.24180565978078,3.427079711812173,4.0517675183635715
Gujarat,Kachchh,23.48057203301311,68.82192301497916,468,2092371,9631,403294,1278604,524052,286086,91.0,60.0,76.89463293077566,0.2959322223448901,21.14132723116503,0.023418409067990333,1.2097281027121864,0.30362684246722976,0.004683681813598067,0.1266505796534171,11.802686999580859,6.755255162683864,7.517022554795492,2.9328450834006015,2.886008265264621
Gujarat,Kheda,22.88765312500002,73.018803515625,483,2299885,5710,372226,1260660,628221,388646,94.0,72.0,86.99930648706349,1.1578405007206882,11.499792380923395,0.013044130467392934,0.15126843298686674,0.06100305015250763,0.003565395661087402,0.1141796220245795,12.82920667772519,10.872021861962663,13.49376164460397,6.458148994406241,3.662052667850784
Gujarat,Mahesana,23.529355452865065,72.45545194085031,471,2035064,7759,385609,1119451,554432,357578,93.0,74.0,92.66204895767406,0.09601663633183036,6.704015205418601,0.007174221547823557,0.34824457609195586,0.05316786105989787,0.00432418833019502,0.12500835354563788,12.789671479619313,9.015343006411591,13.076148956494734,6.840472830338505,6.423532626000951
Gujarat,Narmada,21.70666386292833,73.68403208722742,487,590297,576,101940,336830,157910,93466,96.0,63.0,94.84174915339227,0.7475897726059932,3.82858120573203,0.01355249984329922,0.06318853051938261,0.024902718462062316,0.35202618342969727,0.12840993601526013,12.908247881998383,9.857410761023688,8.925506990548826,4.810459819379059,2.498403346112211
Gujarat,Navsari,20.866973318871995,72.86184869848157,490,1329672,6726,267679,673014,390349,258957,96.0,75.0,92.13452640952055,0.4311589625110554,5.916421493420934,0.04519911677466322,1.006714437846326,0.1849328255389299,0.21230799776185402,0.06873875662569415,10.955934997503142,10.546585924949913,14.353991059449248,8.457724912610027,6.395637420356298
Gujarat,Panch Mahals,22.80435606837605,73.61984598290586,484,2390776,3456,398937,1421859,599925,363391,95.0,60.0,92.897619852299,0.11975191318634619,6.630190364969366,0.014095841684875538,0.21900838890803656,0.027689754288983997,0.005479392465040639,0.08616449219834899,10.703846784475,8.59218931426449,11.864264991785094,5.846344450504773,3.00362727415701
Gujarat,Patan,23.80634198473284,71.75162977099237,470,1343734,2231,223424,786357,341381,213465,94.0,62.0,88.91231449081441,0.06816825353827469,10.626880022385384,0.0049116863903123685,0.26805900572583563,0.025079368386898,0.0049116863903123685,0.08967548636858187,12.576149743922532,5.85912092720732,9.643575290943,4.278674201888171,3.4497154942868153
Gujarat,Porbandar,21.55092351651571,69.71896987722886,478,585449,1653,117040,314886,163777,105638,95.0,67.0,93.90211615358469,0.08540453566408004,5.733206479129693,0.015543625490862568,0.08796667173400245,0.0423606496893837,0.0064907447104700835,0.12691113999682296,8.640889300348963,12.236249442735405,10.839202048342383,4.290553062692053,3.8360301238878196
Gujarat,Rajkot,22.40603377715488,70.83679439383323,476,3804558,21785,747352,2080568,1052871,659576,93.0,72.0,89.29831007964657,0.14398518829256907,9.498816945358698,0.030752586765663715,0.882914651320863,0.050413214885934185,0.007070466529883366,0.08773686719981665,10.087374144381554,10.572581624462027,14.2008086090421,5.370032471577513,6.999367600651639
Gujarat,Sabar Kantha,23.71803594548552,73.13638790459964,472,2428589,5262,438606,1393131,630963,400905,95.0,65.0,93.08120888301808,0.26249810074903573,6.11725573985553,0.006917597007974589,0.45746727832498624,0.025282170017240462,0.002141160978658801,0.04722907004849318,8.814253873339622,8.705589953672687,13.738430010182867,8.192534842247905,4.5630199263852385
Gujarat,Surat,21.25761372772093,72.93488716344339,492,6081322,55694,1252452,3563443,1740746,723415,79.0,75.0,86.49752471584303,0.3461747297709281,10.865597973598504,0.21215781700097444,1.855435380662297,0.09377895135301173,0.06445966847340101,0.06487076329784872,9.311166223396821,13.270486252824632,14.748881904296468,7.130867268662964,6.240501654081135
Gujarat,Surendranagar,22.82672007299272,71.48358740875906,475,1756268,2975,302068,1033435,439352,280582,93.0,62.0,92.25710426882458,0.0807963249344633,6.245117487763826,0.01776494248030483,1.3091396073947712,0.02915272612152587,0.007288181530381467,0.053636460950151114,13.373414535822551,9.41803870479904,9.84741508699128,3.4826119931582196,3.324606495136278
Gujarat,The Dangs,20.801633877551023,73.6883518367347,489,228291,137,29794,146095,51821,30027,101.0,62.0,89.16032607505333,8.773451428221,1.5738684398421312,0.01401719734899755,0.017083459269090766,0.030224581783775968,0.24530095360745713,0.18572786487421755,19.115514847278252,7.7690316306818925,6.514492467946612,3.3115628737006713,1.5287505858750454
Gujarat,Vadodara,22.26133739279589,73.49433010291594,486,4165626,53606,798277,2213474,1190041,733710,93.0,69.0,89.1568518153094,0.5716547764969779,9.232201834730242,0.04966840518087798,0.6637657821417478,0.224216000188207,0.026982739208944825,0.0746586467436107,9.521354053388373,10.98663202121362,12.116594240577527,6.4444335617263775,7.560928417481551
Gujarat,Valsad,20.44238231644259,72.9148584798345,491,1705678,11020,329218,944532,485874,259906,92.0,69.0,92.11275516246326,1.152679462360422,5.512998350216161,0.05352710183281956,0.8095900867572895,0.09315943571998936,0.08307546910964438,0.1822149315404197,9.700482740587614,10.067081829043936,12.44771873706526,7.2276830679647635,5.329962630695829
Haryana,Ambala,30.3503672316384,76.94970310734456,70,1128350,12899,199681,617859,308126,201685,88.0,72.0,84.64536712899367,0.32835556343333183,1.9624230070456863,0.03376611866885275,0.42938804448974166,12.248149953471883,0.009748748172109717,0.3428014357247308,7.937076261798201,14.343421810608412,14.494084282359196,8.683475871848275,8.10670447999291
Haryana,Bhiwani,28.728868064516128,76.02110225806452,81,1634445,5292,266244,964960,405760,261428,89.0,65.0,98.56746479691884,0.05341262630434184,0.9492518867260753,0.015540443392099458,0.06216177356839783,0.14690001804894018,0.0015907540480101807,0.20367770099330354,11.38888124103289,12.132987038413651,13.376467241173609,9.115938437818343,6.416551184041067
Haryana,Faridabad,28.14873109756098,77.32718536585368,88,1809733,43437,333171,1095602,481318,231029,87.0,70.0,87.77024014039641,0.538366709343312,8.933914560877213,0.035364332749637656,0.26981880752575105,1.9103370497194891,0.013758935710405899,0.5281994636777911,7.62001908568833,10.97128692464579,15.619210126576682,9.8824522733464,14.36305797595557
Haryana,Fatehabad,29.57298318584072,75.54608716814157,78,942011,3210,153301,555745,237009,147469,90.0,59.0,82.72122087746322,0.10573124942277745,0.8874630975646782,0.01815265426836842,0.12441468305571804,16.026245978019364,0.05626261264465065,0.06050884756122805,10.991485237433533,10.610067186051968,9.928334170195464,6.526038443287817,4.0064287996636985
Haryana,Gurgaon,28.043894789579163,77.01935130260523,86,1514432,67087,305751,875531,428101,210307,85.0,73.0,93.02504173181761,0.6421549465410135,4.677793390525293,0.06233360098043359,0.49199964078941805,0.9968753961881418,0.016771964670582767,0.08702932848751214,8.38069982673372,11.579919071968897,14.474073447998986,9.91262730845624,15.411850779698263
Haryana,Hisar,29.23628731117825,75.84324682779452,80,1743931,10132,285004,1017830,456536,265109,87.0,64.0,97.54176053983787,0.11152964194110893,1.2414481994987185,0.019152133886031042,0.20757701996237235,0.7035828825796434,0.001892276701314444,0.17305730559293916,11.313693030286174,11.158411657341947,11.628441721604812,8.293103339524327,6.040720647777922
Haryana,Jhajjar,28.59651868131869,76.61137142857145,83,958405,5034,168558,549975,245095,162356,86.0,71.0,98.6736296242194,0.0765855770785837,0.8604921718897544,0.010955702443121645,0.06729931500774725,0.10872230424507384,0.002295480511892154,0.2000198246044209,9.467500691252654,12.08194865427455,15.156223099837751,10.168665647612439,6.137906208753085
Haryana,Jind,29.45149821958457,76.29598575667653,77,1334152,5263,222462,784085,335704,213478,87.0,62.0,95.69142046783276,0.06663408667078415,1.7251407635711673,0.012892084260264199,0.19443061959956587,2.181385629223657,0.004197422782411599,0.12389892605939952,10.260599991605154,11.36916933003136,11.60085207682483,8.094579927924254,4.841952041446552
Haryana,Kaithal,29.96068539094649,76.37698930041155,73,1074304,3724,187349,630194,265813,176320,88.0,60.0,90.71175384248778,0.16466475038722744,0.7662635529608007,0.02466713332539021,0.0326723162158942,8.150207017752889,0.006515846538782319,0.1432555403312284,11.109052931013942,11.6058396878351,10.960863964017634,7.660494608602407,4.751262212558085
Haryana,Karnal,29.703200647249204,76.87488025889972,74,1505324,11163,267223,884972,380409,234684,89.0,65.0,89.08394471887779,0.13611687583536833,2.102537393943098,0.03534122886501511,0.10070921608902801,8.384042239411581,0.003255113184935602,0.15405321379317674,10.352522114840394,12.491662924393685,12.196045502496473,8.28990968057375,6.735227764919712
Haryana,Kurukshetra,30.05652659846548,76.78774680306903,72,964655,7356,171908,552034,250830,160216,89.0,67.0,83.46766460548072,0.20141916021790174,1.6555141475449773,0.022184096905111153,0.03887400158605927,14.55390787379944,0.010988384448326087,0.049447730017467384,9.79935831981382,12.243444547532539,12.521575070880264,8.496716442666031,7.360869948323494
Haryana,Mahendragarh,28.1352161458333,76.14018072916659,84,922088,2624,135455,530000,229392,161258,89.0,68.0,99.04163160132222,0.03264330519429816,0.6138242770755069,0.008133713918845056,0.06984149018314956,0.1883768143604515,0.0016267427837690113,0.0439220551617633,10.2238614969504,13.696198193664813,14.398300379139517,10.220824910420697,6.539072192675753
Haryana,Panchkula,30.700897142857134,76.97173238095236,69,561293,18615,103455,309078,157076,93606,87.0,72.0,87.42350252007418,0.46018746002533434,4.178031794446039,0.17958535025378902,0.2896882733260525,7.295833014129875,0.016034406272659733,0.1571371814720654,8.125346298635472,10.721138514109386,12.322084900399613,8.606200326745569,14.832894762628431
Haryana,Panipat,29.34352134146342,76.92895914634147,75,1205437,10024,209965,739075,298764,167244,86.0,65.0,89.9205848169585,0.18756683260925291,7.1859416958331295,0.023974707927498493,0.3855033485781505,2.0792459498090734,0.008212789220838583,0.20896985906355953,9.861402960088334,11.901575942998265,11.736241711512092,7.611845330780456,6.286019095149725
Haryana,Rewari,28.19164714828897,76.55956007604564,85,900332,5121,152651,518747,230704,150557,90.0,71.0,98.7561255181422,0.07786016713834452,0.6345437016567222,0.022436167991363186,0.16938196132093494,0.2003705299822732,0.0013328416628532586,0.13794911210531227,9.027780863059405,13.619087181173168,15.510500570900513,10.641296766081846,7.235442036937485
Haryana,Rohtak,28.892517647058817,76.53123235294117,82,1061204,8482,193120,605741,269354,185685,87.0,70.0,98.36817426244153,0.06897825488784437,0.7712937380560194,0.018846517728919227,0.3289659669582851,0.3690148171322385,0.002261582127470307,0.07246486066769443,11.034353432516273,13.266252294563532,15.878096954025805,10.32751478509316,9.455863340130644
Haryana,Sirsa,29.63583446327684,74.90970480225988,79,1295189,6287,215527,750228,334344,208185,90.0,60.0,72.5959686192517,0.16877845627163293,0.7353366960343239,0.02856725929574757,0.17418307289515275,26.170852284878887,0.04817829675823374,0.07813531461431499,10.945584003570136,11.83325367957881,10.389140117774318,6.437130025038816,4.757606804875582
Himachal Pradesh,Chamba,32.66741814595661,76.39354063116366,23,519080,1615,96082,306555,130606,81566,99.0,62.0,92.42929798874933,0.300339061416352,6.252408106650227,0.33520844571164365,0.010980966325036604,0.5288202203899206,0.0026970794482546042,0.1402481313092394,10.840718193727364,13.033251136626339,12.428720043153271,7.790706634815443,2.9872081374739925
Himachal Pradesh,Hamirpur,31.67668481012659,76.49767088607594,28,454768,2521,104120,224044,123941,106641,110.0,79.0,98.8222566231573,0.05343383879252717,0.8160204763747668,0.0208897723674489,0.06442845582802659,0.12995637335960314,0.0019790310663898953,0.09103542905393519,8.207921401681736,15.857316257960102,20.05066319529958,14.152930725116983,7.832565176089787
Himachal Pradesh,Hamirpur,31.67668481012659,76.49767088607594,168,1104285,1196,55929,660774,260368,181109,86.0,59.0,91.46316394771277,0.073712854924227,8.264985941129328,0.006701168629475181,0.003712809646060573,0.017749041234826155,0.024721878862793575,0.14525235786051607,14.452156825457196,19.110012360939432,9.357548096732275,5.425592125221297,5.398244112706411
Uttar Pradesh,Hamirpur,25.738158381502892,79.82619479768789,28,454768,2521,104120,224044,123941,106641,110.0,79.0,98.8222566231573,0.05343383879252717,0.8160204763747668,0.0208897723674489,0.06442845582802659,0.12995637335960314,0.0019790310663898953,0.09103542905393519,8.207921401681736,15.857316257960102,20.05066319529958,14.152930725116983,7.832565176089787
Uttar Pradesh,Hamirpur,25.738158381502892,79.82619479768789,168,1104285,1196,55929,660774,260368,181109,86.0,59.0,91.46316394771277,0.073712854924227,8.264985941129328,0.006701168629475181,0.003712809646060573,0.017749041234826155,0.024721878862793575,0.14525235786051607,14.452156825457196,19.110012360939432,9.357548096732275,5.425592125221297,5.398244112706411
Himachal Pradesh,Kangra,32.14093603238864,76.41205910931173,24,1510075,8053,330081,766581,419172,319420,101.0,76.0,96.75943247851929,0.20018873234773107,1.31099448702879,0.9609456483949473,0.012847044020992337,0.5912951343476317,0.013774150290548482,0.1505223250500803,8.45646739400361,14.774034402264787,18.815224409383642,12.776583944506067,6.041819114944622
Himachal Pradesh,Kinnaur,31.60667184065933,78.51613736263741,34,84121,354,17865,42360,26599,15075,82.0,72.0,76.95105859416792,0.5765504451920448,0.5325661844248166,21.49998216854293,0.03447415033107072,0.2960021873254003,0.0534943712033856,0.05587189881242496,11.17437976248499,13.595891632291579,13.242828782349235,9.356759905374401,6.084093151531722
Himachal Pradesh,Kullu,31.90911922077925,77.40922649350647,26,437903,2623,91322,244727,120510,72282,94.0,70.0,94.9226198496014,0.35807016622402676,0.6791458382335814,3.511508256394681,0.02146594108740977,0.31879206125557485,0.01895396925803203,0.16944391794529837,11.049022272055684,14.125045957666424,13.272802424281178,8.92457918762831,5.290669394820314
Himachal Pradesh,Mandi,31.635805940594054,76.96556930693067,27,999777,5333,214491,524285,279321,194661,101.0,72.0,98.16309036915231,0.08761953915723207,0.946211005054127,0.2628586174716962,0.004300959113882396,0.4081910265989316,0.008601918227764791,0.11912656522404495,10.00743165725957,13.217647535400395,18.02281908865677,12.85776728210391,5.415107568987884
Himachal Pradesh,Shimla,31.155725451807253,77.62573042168668,33,814010,9177,172754,425721,241956,145577,92.0,75.0,97.22841242736577,0.2487684426481247,1.4508421272465941,0.4007321777373742,0.02272699352587806,0.4971683394552892,0.024201176889718796,0.12714831513126373,8.595348951487082,13.919362169997912,17.381850345818847,11.712509674328325,9.878748418324099
Himachal Pradesh,Sirmaur,30.682764453961443,77.43184689507493,32,529855,2220,91509,310244,136839,82471,92.0,68.0,89.99254513027148,0.10889771730001604,6.268696152721027,0.49919317549140807,0.044540487491860986,2.925517358522615,0.016230855611440866,0.14437912259014257,10.918647554519632,14.74044785837635,12.660067376923875,7.224995517641619,4.407243491143804
Himachal Pradesh,Solan,31.03864311926604,76.94442140672783,31,580320,5250,119866,321533,167168,90808,88.0,74.0,94.53043148607665,0.250206782464847,2.529294182519989,0.09891094568513924,0.10184036393713813,2.399710504549214,0.01895505927763992,0.07065067548938517,8.6729735318445,14.473393989523023,16.41025641025641,10.229356217259443,6.341845878136201
Himachal Pradesh,Una,31.58330388349513,76.18353932038836,29,521173,2412,105929,273223,142351,105358,98.0,77.0,92.1264148372997,0.07483119808585632,2.7390137248092286,0.01074499254566142,0.013431240682076776,4.99047341285907,0.0019187486688681111,0.043171845049532497,9.946409349678513,15.590984183754722,20.186003495960076,11.63260567987981,6.163020724404372
Jammu and Kashmir,Doda,33.359614675767915,76.07163720136518,16,409936,596,61831,263576,93189,52744,92.0,53.0,45.768363842160724,0.11513992428086334,53.81669333749658,0.005122750868428242,0.005366691385972444,0.10294289840365325,0.010245501736856484,0.17612505366691386,10.683131025330784,15.299705319854805,11.796719487920065,7.66363529916865,3.085115725381523
Jammu and Kashmir,Jammu,32.713199095022645,74.8477520361991,21,1529958,19905,294739,816827,435895,275585,88.0,74.0,84.26636548192826,0.7911328284828734,7.025617696694941,0.03071979753692585,0.12987284618270567,7.468963200297002,0.020980968105006804,0.26634718077228264,8.849327890046654,16.571827461930326,17.114979626891717,10.409239992208937,9.575491614802498
Jammu and Kashmir,Kargil,33.565994894894914,76.63675315315312,4,140802,235,15824,87532,35561,17488,81.0,61.0,7.344355904035455,0.4289711793866564,76.87319782389454,14.293831053536172,0.019886081163619836,0.8316643229499581,0.0028408687376599764,0.2052527662959333,9.042485191971705,14.825073507478587,12.02965866962117,6.978594054061732,2.185338276444937
Jammu and Kashmir,Kathua,32.51781678321678,75.58901398601404,7,616435,1443,109422,357864,160123,97684,89.0,63.0,87.61069699157251,0.2965438367386667,10.420238954634309,0.0038933545304857767,0.002595569686990518,1.5493928800279024,0.00032444621087381476,0.1163139665982626,11.257634624899625,17.262322872646752,14.846983055796636,7.73706879070786,3.946888155279957
Jammu and Kashmir,Pulwama,33.88414418604652,75.00921860465118,12,560440,1537,73629,342601,137032,80111,91.0,52.0,2.4694882592248946,0.19788023695667692,95.4890800085647,0.006245093141103418,0.001070587395617729,1.6843908357718935,0.0032117621868531865,0.14863321675826138,6.459389051459567,13.20230533152523,12.02055527799586,7.303368781671543,5.582399543216045
Jammu and Kashmir,Punch,33.791241290322574,74.29593161290322,5,476835,346,62900,304979,109818,61334,89.0,55.0,6.837585328258203,0.20090807092600166,90.44617110740613,0.017406440382941687,0.0020971614919206853,2.3463042771608627,0.000419432298384137,0.14910818207556073,11.694191911248126,14.516342130925791,9.659945264085062,6.190191575702287,2.928056875019661
Jammu and Kashmir,Srinagar,34.27312898550724,75.11021159420288,10,1236829,16413,165403,693238,351561,190330,90.0,61.0,3.439440698754638,0.22201937373719405,95.19036180425911,0.023042797347086783,0.0059830421181909545,0.9853423553296374,0.00016170384103218798,0.13364822461310336,7.188625105006431,14.450097790397864,14.263006446323622,10.731232854339606,9.852291626409148
Jammu and Kashmir,Udhampur,33.04770670731707,75.15286951219511,19,554985,1214,73999,339145,140785,74757,87.0,58.0,88.11841761489049,0.3535230681910322,10.769840626323234,0.01909961530491815,0.010270547852644666,0.6158725010585872,0.042343486760903444,0.07063253961818788,10.55289782606737,15.497355784390567,9.914502193752984,5.343748029226015,3.1253096930547675
Jharkhand,Bokaro,23.6814965034965,85.98398374125864,355,2062330,9754,274726,1261238,510375,282115,92.0,62.0,79.35005551972769,0.6657518437883365,11.707680148181911,0.09164391731682127,0.09915968831370343,0.2023924396192656,7.78362337744202,0.09969306561025636,11.756944814845346,16.614508832243143,11.270456231543934,7.470967303971722,5.6439076190522375
Jharkhand,Chatra,24.11619945750453,84.93295804701627,347,1042886,590,27037,692650,222892,126682,95.0,49.0,86.60380904528395,0.6295031288175313,11.191060192580972,0.003356071516925148,0.012369520733809833,0.08514832877227232,1.2404040326555348,0.23434967963900177,19.26011088460292,9.783715573897817,6.105173528074976,3.388865130033388,2.080476677220713
Jharkhand,Deoghar,24.33070100755672,86.75697632241814,350,1492073,1944,130193,944961,338413,205514,93.0,53.0,78.08867260516074,0.4039346600333898,20.282251605652,0.01259991970902228,0.018899879563533423,0.009583981480798863,1.0768239891747924,0.10723335922572153,14.574353935765878,12.74542197332168,6.456185454733113,3.647207609815337,2.9475099408675045
Jharkhand,Dhanbad,23.854509090909097,86.40372924901185,354,2684487,11568,427173,1634835,648876,356445,91.0,64.0,80.07041941346708,0.4188137249314301,16.08359437017203,0.012330102548457116,0.047234350548168054,0.3623411102381945,2.8751117066314715,0.13015522146316968,11.842784114804802,16.74457726932557,11.363586413344523,6.954662101176128,4.0000938726840545
Jharkhand,Dumka,24.275006125574265,87.27662450229711,362,1321442,1193,62110,799323,324226,196164,98.0,51.0,79.0595425300543,6.538614634618849,8.086998899686858,0.020205200076885706,0.012259334878110428,0.017707928157270618,5.949712511029618,0.314958961498121,17.34143458434044,11.276242165755288,5.261297885189058,2.9046299421389663,1.9367478860214826
Jharkhand,Garhwa,24.082114689265527,83.68664265536722,346,1322784,565,29373,860869,284036,177599,94.0,49.0,83.49624730870649,1.29786873745071,14.717444420253042,0.02804690712920628,0.0015119626484747322,0.009298570288119604,0.34707102595737477,0.10251106756658684,15.699086169775262,11.146642233350267,6.640842344630718,3.5441916442896195,2.127633838933643
Jharkhand,Giridih,24.30578509874329,86.08710915619386,349,2445474,1944,125431,1597269,533788,312967,94.0,51.0,75.90356716121292,0.5988614068274698,20.797031577518304,0.02657971419855619,0.06146047760066147,0.038315680313918694,2.421534639092462,0.15264934323570808,20.579282380430133,10.685413134631569,5.989186554426667,3.1707554445477646,2.2540415477735607
Jharkhand,Godda,24.8189,87.2941735483871,351,1313551,874,43230,820367,308639,183519,94.0,46.0,71.34294747596401,2.877315003376344,22.015285283936446,0.009744577865648155,0.008754894176168265,0.007384562913811493,3.5831878625192317,0.15538033924834285,16.56631527820389,9.65063404466214,6.046967342722133,3.608158343299955,2.3501181149418637
Jharkhand,Gumla,23.078532948929148,84.55056787479396,366,1025213,831,31687,643579,225871,155452,99.0,55.0,30.19499362571485,19.747018424463988,5.016420977884596,0.05179411497903362,0.002243436242029705,0.02155649606472021,44.62175177255848,0.3442211520922969,13.335667807567795,17.777769107492787,8.009457546870747,4.4491242307696055,2.315811446011707
Jharkhand,Jamtara,23.97873318077801,86.95325080091534,363,791042,808,49419,480895,189889,116810,95.0,54.0,69.59933859390526,0.5586302623628076,20.783472938225785,0.01491703348241939,0.09898336624351173,0.06573607975303461,8.667554946513587,0.21136677951360355,16.57939780694325,10.839500304661447,5.134114244249989,2.9069252960019822,1.8712027932777275
Jharkhand,Latehar,23.72511185840708,84.48298743362837,359,726978,340,38194,484084,152720,89870,97.0,48.0,65.07060736363411,6.554943891011833,9.602491409643758,0.01760713529157691,0.002200891911447114,0.016506689335853354,18.367130779748493,0.36851183942292615,15.061116017265997,12.213161883853433,6.3470971611245455,3.285518956557145,1.919727969759745
Jharkhand,Lohardaga,23.488796043165483,84.6605169064748,356,461790,351,28769,298844,100340,62244,99.0,56.0,24.33530392602698,3.6315208211524714,20.574720110872907,0.007146105372571948,0.003248229714805431,0.011043981030338466,51.102665713852616,0.3343511119773057,17.9460360770047,13.760583815154073,8.337772580610233,4.761255115961801,2.9985491240607205
Jharkhand,Pakur,24.57260428082189,87.69691969178076,353,900422,328,31414,587976,206826,104418,99.0,39.0,45.548309570401436,8.425493824006965,35.86795969001202,0.031429707403861744,0.02465510616133324,0.0395370170875434,9.857600103062786,0.2050149818640593,11.146662342768169,8.77866156091255,3.3244412064565285,1.743626877175369,1.0908218590838519
Jharkhand,Palamu,24.196925968109337,84.20310842824594,358,1939869,2155,68238,1244572,425668,268387,93.0,53.0,86.76714767852881,0.3177534153079409,12.28407691447206,0.009691376067146802,0.014640163846115382,0.0378376065600306,0.29285482679500524,0.2759980184228935,15.62234357062255,11.937146271217284,8.297673708894775,5.169936732841238,3.2783141542031964
Jharkhand,Ranchi,23.184235061391547,85.31781937244203,364,2914253,22538,350908,1742293,725938,409166,95.0,66.0,55.32254749330274,6.656045305606617,14.094829790001073,0.03198075115647132,0.09378046449639067,0.1655998981557195,23.24592271158338,0.38929358569760414,12.405305922306678,17.00315655504172,12.725285004424805,8.483717782910407,6.697462437200888
Jharkhand,Sahibganj,24.93667989690721,87.68264097938142,352,1150567,591,34879,745027,261849,137727,95.0,42.0,54.585608660773346,7.231912613520117,34.61276049113176,0.021293849032694313,0.010864208690150161,0.017208906565197853,3.339744665021681,0.18060660526505629,12.724074304234348,9.631946683678569,4.5410654051437245,2.4411442358419806,1.7236718939444637
Jharkhand,Simdega,22.608760391198054,84.59193691931536,367,599578,423,16865,357859,143560,97817,100.0,57.0,33.6109730510459,51.13613241313056,2.5189383199516993,0.12558833045908957,0.01901337273882631,0.008505982541053874,12.330339005100253,0.25050952503260626,13.729156173175133,16.274779928549744,7.978278055565748,4.143247417350203,2.2806040248307977
Karnataka,Bagalkot,16.15860676328503,75.64526070853468,556,1889752,3745,301389,1123443,465706,299774,99.0,59.0,86.4784902992562,0.18166404903923902,11.641262980539246,0.02180180256456932,1.3334024782087808,0.023442229456563612,0.008784221421646862,0.3111519395137563,12.823693267688036,7.799806535460737,9.07552948746714,6.090481714002684,4.356074236196072
Karnataka,Bangalore Rural,12.936827087794448,77.47369314775169,583,990923,3729,214253,535765,278153,176083,95.0,70.0,89.85854602224391,0.5417171667223387,9.309704184886213,0.02744915598891135,0.10545723532504545,0.039256329704729837,0.008577861246534795,0.1092920438823198,10.169306797803664,12.744178911984081,16.820378576337415,8.298828465985753,5.148230488140855
Karnataka,Belgaum,16.16107219152853,74.72329042357275,555,4779661,17560,808827,2669348,1251116,857143,97.0,64.0,84.4899042003188,0.385341136118231,11.055428407997974,0.022721276676316585,3.7305993040092176,0.04261808525751094,0.003117375897579347,0.27027021372436244,11.393360324089931,12.754042598418591,11.142714933130195,5.849431581026352,4.223814199375227
Karnataka,Bellary,15.074377548209377,76.47228471074374,565,2452595,9626,440374,1487013,617276,346905,98.0,58.0,85.77172341948018,0.5713947879694772,13.08140969055225,0.011579571841253855,0.3279791404614296,0.04195556135440218,0.0022017495754496764,0.19175607876555242,11.244620493803502,8.957940467137867,8.282614944579109,4.952020207168325,3.648176727099256
Karnataka,Bidar,17.950361730769224,77.19459961538459,558,1703300,3971,271439,1018195,397120,287271,96.0,61.0,75.71825280338167,2.0805495215170553,19.678506428697233,1.787882346034169,0.03992250337579992,0.06722245053719252,0.030587682733517287,0.5970762637233605,11.095990136793283,11.403334703223154,10.630892972465213,6.184876416368226,3.223155051957964
Karnataka,Bijapur,16.84015316666667,75.95909166666665,417,255230,117,12516,167348,63802,23927,98.0,34.0,96.05101281197351,1.0613956039650512,0.6335462132194492,0.6460839243035693,0.005877052070681346,0.026642636053755435,1.486110566939623,0.08933119147435648,10.028993456882027,5.551855189436979,2.8178505661560163,2.6466324491634996,1.3403596755867255
Karnataka,Bijapur,16.84015316666667,75.95909166666665,557,2177331,4987,326594,1295274,527085,353549,96.0,57.0,82.06515224373327,0.1117423120324838,16.974359892914766,0.017176993300513334,0.39796429665494126,0.025627706582049305,0.022917966997208966,0.38505858778476953,11.316194000820271,6.576813539144943,8.393579111306456,5.929690984053412,4.454536310740076
Karnataka,Chikmagalur,13.425288289676422,75.67626502311249,570,1137961,4510,238505,564994,341380,230864,101.0,72.0,88.2765753835149,2.284788318756091,8.896174824972034,0.00957853564401592,0.4138981915900457,0.015993518231292636,0.0003515058951932448,0.10263972139642748,10.068007603072513,14.06752955505505,15.605543599473092,8.477443427323081,6.364014232473697
Karnataka,Chitradurga,14.29102220394736,76.57821957236843,566,1659456,5711,307257,891230,460057,306412,97.0,66.0,91.62960632882101,0.19132776042269273,7.758626923521924,0.005061899803309036,0.22766496972501832,0.019403949246017974,0.007713371128851865,0.16059479733117357,11.348839619730803,11.839422075668171,13.110742315554013,7.980627386324193,4.535341702341008
Karnataka,Davanagere,14.330414586709884,75.91723841166937,567,1945497,7320,372671,1068518,538551,336173,97.0,67.0,85.24634065228577,0.27859205128560977,13.662575681175557,0.008429722585025832,0.3298385965128705,0.0157800294731886,0.0895915028396343,0.3688517638423498,12.445662984831126,10.623814891516153,13.865248828448461,7.955859094102946,6.366650783835699
Karnataka,Dharwad,15.343831376975173,75.13831264108359,562,1847023,15013,347962,1017935,505688,322577,97.0,70.0,75.25731948113261,1.5563964281982412,20.94364823827316,0.038710941877821765,1.572097369659176,0.08045378969292748,0.1487799556367192,0.40259379552934643,13.675844859538836,10.044812652576605,12.296165234542288,7.766714328949884,7.458921735138111
Karnataka,Gadag,15.507128256880746,75.64861302752298,561,1064570,3373,198064,601578,279069,183409,98.0,66.0,85.26916971171458,0.32238368543167667,13.495120095437594,0.007420836581906309,0.5629502991818293,0.021698901904055157,0.006951163380519834,0.3143053063678293,11.423861277323239,10.586715763171984,9.877227425157574,5.994533003935861,3.9502334275810886
Karnataka,Gulbarga,17.070459515951594,76.87503850385033,579,2566326,9752,404767,1570719,604665,388935,97.0,56.0,78.36159552605554,0.3251340632483948,19.99453693724024,0.3736469957441104,0.18957061573627046,0.03218609015378405,0.012858849577177645,0.7104709222444849,6.930530259990351,10.545113909924149,11.322411883759118,5.990899051796225,4.062461277327978
Karnataka,Hassan,12.945098749999998,76.11049549999997,574,1776421,4851,400702,877340,522039,375918,101.0,69.0,91.80335066968922,0.8787894311089544,6.755774672783085,0.03507051537895578,0.32762503933470727,0.016268666042565362,0.00016887888625500376,0.18295212677625405,10.259673804801903,13.089858766587426,16.45831703182973,8.32218263576033,5.806731624992048
Karnataka,Haveri,14.737582809224318,75.3961230607966,564,1597668,2456,295937,904453,426094,266586,95.0,68.0,80.23431651632254,0.15059449147131945,18.64761640090432,0.004256203416479519,0.6155221234949939,0.02622572399271939,0.043939041152479735,0.2775294992451498,15.07979129581365,12.641237103077735,9.917079142850705,5.2800081118229825,3.461920749492385
Karnataka,Kodagu,12.39684468085106,75.79336595744688,576,554519,3308,113931,276918,163360,113919,102.0,74.0,80.9685511226847,3.0891637617466667,15.738685238918777,0.02272239544542207,0.04508411794726601,0.0250667695786799,0.03967402379359409,0.07105256988489123,9.248916628645727,13.57771329747042,15.550774635314571,9.907505423619389,7.795043993082293
Karnataka,Kolar,13.312799881235172,78.01376947743476,581,1536401,5051,309494,841499,419380,274240,98.0,66.0,84.96681530407751,1.7392594771807621,13.009168830272827,0.009763076176076427,0.16232741322089742,0.016467055150315577,0.00598802005466021,0.09021082386694619,8.98300638960792,14.867342575278201,14.677027677019217,7.024793657385018,4.648656177651538
Karnataka,Koppal,15.651253271028034,76.1617048598131,560,1389920,2135,223166,855430,330393,202984,99.0,58.0,87.63266950615862,0.2936140209508461,11.63879935535858,0.00611545988258317,0.20850120870265915,0.021296189708760217,0.033167376539656956,0.1658368826982848,15.982214803729711,9.180744215494418,8.13197881892483,5.197637274087717,3.1632755842062856
Karnataka,Mandya,12.574901806239744,76.81570098522172,573,1805769,3367,391033,902307,527236,375100,100.0,64.0,94.84574162032906,0.47104585359478424,4.308469134202658,0.01655804258462738,0.1997486943235818,0.017831738168060256,0.0060362095040949314,0.13456870729312553,8.039677278766,12.546012252951513,17.09100111919077,8.740819008411375,5.69496984387261
Karnataka,Mysore,12.248100259403367,76.52881802853437,577,3001127,28397,640868,1580116,865220,553705,99.0,65.0,87.69988740896336,1.311540631236199,9.68132971380418,0.5395972912842409,0.48045284321523213,0.0418176238459752,0.016427162196068344,0.2289473254547375,6.900441067638924,13.480435849599168,15.074736923828949,7.404884898239894,7.082039513822641
Karnataka,Raichur,16.050795353982295,76.87368606194688,559,1928812,5200,314547,1196670,465173,265810,100.0,51.0,84.71857288320479,0.5388809277420505,14.103085215147976,0.11742979616468582,0.21546941848142792,0.027892816925651646,0.00150351615398494,0.27716542617943063,7.6597926599378265,8.487556070783468,7.950282349964641,4.255572860392822,2.616273644087656
Karnataka,Shimoga,14.063845885634592,75.17882078103197,568,1752753,8791,363835,913150,513297,325542,100.0,72.0,84.4057320112988,1.5131053833597774,13.388309704790121,0.0068463725350919385,0.5268283665753246,0.022821241783639794,0.02093848933648951,0.11541843032075827,10.933713991646284,16.686949045301876,14.325749264157587,7.538883117016487,6.375855582617746
Karnataka,Tumkur,13.592467760074973,77.02297966260545,571,2678980,7971,562769,1351461,760936,564196,98.0,68.0,90.10190445617361,0.3408013497674488,9.179725119261809,0.006980268609694734,0.18913914997499048,0.01780528410066518,0.006009749979469799,0.1576346221323041,10.092385908069488,14.44572187922269,15.817139359009772,7.972735892018604,5.365288281360817
Karnataka,Udupi,13.450404228534568,74.72009990316337,569,1177361,9070,224814,559565,340903,276234,109.0,79.0,85.71534134390386,5.591997696543371,8.216681204830124,0.013674650340889499,0.38509853817138495,0.019705086205505363,0.013165036042471257,0.04433644396238707,12.10274503741843,14.970769373199893,15.12654147708307,9.314305467906616,9.111818720001768
Kerala,Alappuzha,9.542602965599087,76.38010796263319,598,2127789,28842,507913,891512,648522,585591,110.0,87.0,68.63683382139865,20.446388246202986,10.552973062648599,0.006861582609929837,0.003477788446128822,0.012595233831926003,0.014616110901973832,0.32625415395981466,6.25245266330449,19.689593282040654,26.943743012112577,12.91429742328774,9.345757497571423
Kerala,Ernakulam,10.004879301987431,76.26957729035381,595,3282388,88737,771287,1396968,1024720,858010,103.0,87.0,45.98959659857397,38.02527306339165,15.671425803408981,0.01870589339224979,0.03582757431479764,0.02620043699891664,0.03299427124398456,0.19997635867545216,6.466724835698888,16.902846342358064,21.402436275053407,11.875287138510133,13.096562624528241
Kerala,Idukki,9.80480963855423,77.04586641566264,596,1108974,8250,244844,494456,352163,261471,101.0,83.0,48.860838937612606,43.419142378450715,7.4127977752408984,0.01704278008321205,0.003967631342123441,0.009017343959371454,0.034626600803986385,0.24256655250709214,7.1371375704029125,18.88213790404464,23.556638839143208,12.302182016891289,7.767179392844197
Kerala,Kannur,11.941523076923056,75.35209891725934,589,2523003,32653,511167,1187177,741984,588081,114.0,85.0,59.833143282033355,10.40529876500345,29.4285420984438,0.04431227390534217,0.007649614368274632,0.016805370425639603,0.028616692092716497,0.23563190372742324,8.113862726282925,19.494388234972373,21.41824643093964,12.234230399250418,8.608907718302357
Kerala,Kasaragod,12.33310309912974,75.07768497134369,588,1307375,10378,237670,688763,369883,246975,108.0,79.0,55.836083755617175,6.689281958122191,37.243560569844156,0.027689071612964907,0.009943589253274692,0.011549861363419064,0.011626350511521178,0.17026484367530356,8.832660866239603,17.62432354909647,18.273257481594797,9.381929438760876,5.827861172196195
Kerala,Kollam,8.929388820570157,76.6360775852431,600,2635375,31542,630767,1177359,795245,660965,111.0,85.0,64.41720817720439,15.997647393634681,19.295166722003508,0.010321111796233934,0.0023905516292747715,0.007892614903002419,0.023488118389223545,0.24588531043969072,6.5359578807570085,21.345311388322344,22.584679599677465,11.68524403547882,8.85650049803159
Kerala,Kottayam,9.643701174068417,76.46059673302705,597,1974551,37849,464039,811653,596302,565048,104.0,89.0,49.81375512711497,43.48370844814847,6.406469116269978,0.018130704144891676,0.004203487273815668,0.01033146269708911,0.028614100116937977,0.2347875542338486,5.959886576745802,18.9409136558134,24.092768431911864,14.216902981994387,11.210143470591543
Kerala,Kozhikode,11.392924270557026,75.71158720159153,591,3086293,36791,641660,1487644,909581,686109,110.0,85.0,56.2149478354777,4.261293402797466,39.24225600096945,0.007614312704594152,0.019473199725366323,0.009623195205380694,0.019051982426814305,0.22574007069322324,8.035400397823537,20.970821629702687,20.439342602922018,11.381518216190102,8.104123620148833
Kerala,Malappuram,10.97329875666072,75.93910775606876,592,4112920,27909,730119,2406005,1041361,662311,110.0,81.0,27.602263112338676,1.9829221088666933,70.23839510615329,0.004352139112844403,0.001653326590354298,0.004984293397391634,0.014077589644340274,0.15135232389640452,10.104767415850539,19.79822121509779,22.70389407039281,9.552021434892971,4.954606459644243
Kerala,Palakkad,10.784926903553291,76.49980490693744,593,2809934,27162,587583,1395222,802611,608966,107.0,80.0,66.76242217788744,4.071163237286,28.930786274695418,0.008469949828003077,0.002775865910017815,0.007829365387229736,0.014235209794963155,0.20231791921091385,8.86846452621307,21.643782380653782,20.371012272886123,8.260300775747757,6.4250619409566205
Kerala,Thiruvananthapuram,8.537101759082221,76.88711502868073,601,3301427,71621,783872,1488441,989238,820024,109.0,84.0,66.4578377774217,19.100013418439964,13.7187646432891,0.009117269592815471,0.0023020348473554012,0.01223713260962608,0.03277370664261242,0.6669540171568235,6.2496611313834896,19.460372741847692,20.662458991218042,11.787660305679939,11.564150895961049
Kerala,Thrissur,10.458932647907687,76.12321940836945,594,3121200,56148,721625,1394214,931841,792182,111.0,86.0,58.42118415993849,24.268999102909135,17.07160707420223,0.008906830706138664,0.0019864154812251696,0.008298090478021275,0.018742791234140715,0.20027553505062154,7.132737408688966,16.800813789568114,26.330610021786494,11.619152889914137,10.848391644239396
Kerala,Wayanad,11.715277464788736,76.07587007042254,590,817420,4712,149864,412806,246590,157326,103.0,79.0,49.480071444300364,21.341905018228083,28.649286780357713,0.03816887279489124,0.2198380269628832,0.00746250397592425,0.03498813339531697,0.22827921998483033,7.991730077561107,16.787820214822247,22.542389469305864,10.64838149299014,6.252721978909251
Madhya Pradesh,Anuppur,23.18184220430107,81.86560000000007,461,749237,1290,81338,444954,193520,109813,98.0,58.0,91.62975133369015,0.2845561551284841,2.8659823260196706,0.011478343968597387,0.2206244486057149,0.0808822842438374,4.729344653293951,0.1773804550496038,15.109771674383406,12.472688882156113,7.812748169137403,5.704870421508815,4.223763642212011
Madhya Pradesh,Ashoknagar,24.63098846153845,77.82974493927134,459,845071,619,84720,535410,194772,114131,90.0,56.0,92.08859373946095,0.0751416153198962,4.816991708388999,0.15998655734251915,1.786122112816556,0.9477310190504703,0.0031949978167514917,0.12223824980386264,17.589882980246628,7.43156492176397,6.094044169069818,3.4968659438082716,2.696933157095676
Madhya Pradesh,Balaghat,21.80020720640569,80.42170053380796,457,1701698,1712,277927,969773,453605,276799,102.0,67.0,89.28634810642076,0.31115979451112946,2.264914220972229,4.240587930408333,0.2807783754814309,0.06170307539880754,3.412121304720344,0.14238719208696254,17.082878395579005,13.82448589585226,9.909807733217058,7.422468616640556,4.361114604354004
Madhya Pradesh,Barwani,21.702135714285724,74.91004719710673,441,1385881,1158,181139,923665,302833,158594,98.0,40.0,95.16466420998628,0.21408764533174204,4.201082199698242,0.03001700723222268,0.1651656960446099,0.17036094729634074,0.018977098322294626,0.035645196088264434,11.35285064157745,5.344398256415954,4.2644354024624045,3.077392647709291,2.219093847162924
Madhya Pradesh,Betul,21.964626315789477,77.7873428189117,447,1575362,2109,230974,938819,392728,242592,97.0,60.0,95.58088871002347,0.2076348166326216,2.386118238220803,0.6126210991505444,0.23861182382208024,0.06842871670130421,0.8282540774755263,0.0774425179736467,15.178352657992258,11.19266555877316,8.912364269291755,6.7093150653627545,5.2534592049319455
Madhya Pradesh,Bhind,26.35951126187245,78.7618324287653,420,1703005,1166,107819,1040736,399676,258588,84.0,64.0,93.68146306088356,0.057134300838811394,3.9210689340313154,0.7172615465016251,1.171458686263399,0.23763876207057527,0.004286540556252037,0.20968816885446606,11.898320909216356,11.687810664090827,8.26439147272028,5.637740347209785,2.949022463234107
Madhya Pradesh,Bhopal,23.480726143790854,77.39246623093679,444,2371061,40788,452912,1405814,625594,330291,92.0,70.0,74.0538096657994,0.9882495642246235,22.160290266678082,0.9146959947466556,1.0944467476796254,0.455028360721213,0.014128695971972041,0.31935070417842476,9.66158188254119,12.112636494801272,8.914616705348365,7.51414662043701,11.244670634791767
Madhya Pradesh,Burhanpur,21.364567254408065,76.24460478589425,467,757847,986,112420,469838,181605,106034,95.0,54.0,72.90732826018971,0.15821135400681138,23.862336329100728,2.6236166402981076,0.24859899161704144,0.14171725955238987,0.01306332280790186,0.04512784242729733,14.191123010317385,9.20568399690175,7.5289603310430735,5.6235625396682964,3.725949960876008
Madhya Pradesh,Chhatarpur,24.813637376460004,79.56449299191374,425,1762375,1880,176056,1112636,394060,252417,88.0,54.0,95.15103198808426,0.11234839350308533,3.9918292077452304,0.014185403220086532,0.5906234484715228,0.054925881268175054,0.005787644513795305,0.07926803319384353,15.374196751542662,9.096247960848288,6.409589332576779,4.4137598411234835,3.3877012554081847
Madhya Pradesh,Chhindwara,22.227966971713823,78.76413136439254,455,2090922,3588,344875,1232263,535316,321977,96.0,62.0,92.0129971371481,0.23401159871099925,4.81567461626976,1.1703449483051016,0.37447594888761987,0.1079906376230199,1.2325184774946172,0.05198663556077175,13.58792915278523,10.796528995342724,10.287232139697226,8.032150410201815,5.374805946850241
Madhya Pradesh,Damoh,23.76624407960196,79.47049303482588,428,1264219,1432,187731,768929,312593,181403,91.0,59.0,93.84608204749335,0.1329674684528551,3.7941211135096053,0.009412926083218176,1.9779009807636176,0.08669384022863127,0.0064862179733100045,0.14633540549540863,15.655278080775561,11.868196886773573,7.5170520297511745,5.095161518692568,3.2556068212865017
Madhya Pradesh,Datia,25.90226439560441,78.63916571428574,422,786754,616,97696,473097,195131,118186,87.0,62.0,95.03516982436696,0.08681239625092468,3.620318422276849,1.0070492174173884,0.05757835358955912,0.06228122132203967,0.0012710453331028506,0.12951951944318046,16.800168794820237,11.305821133416545,9.329218535908302,6.225325832471141,4.429974299463365
Madhya Pradesh,Dewas,22.7851110021322,76.46088805970157,437,1563715,3518,270457,943954,388648,230280,94.0,59.0,88.03336925206959,0.15060289119180925,11.143910495198933,0.024429004006484557,0.41548491892704237,0.14900413438510215,0.004604419603316461,0.07859488461772125,15.50845262723706,9.561972610098387,8.043153643726638,6.037097552942831,3.541757929034383
Madhya Pradesh,Dhar,22.572681718963157,75.1105620736698,438,2185793,2388,349639,1377326,533243,273050,96.0,49.0,93.84324133163571,0.10344071922638602,5.316239918418624,0.015005995535716327,0.558104083964035,0.07352022812773214,0.004025998802265356,0.08642172428953702,11.990613932792355,7.529349760018446,6.143262422379429,4.569600140543958,3.0524848418857595
Madhya Pradesh,Dindori,22.83738437047757,81.04332966714911,453,704524,554,62372,419531,181841,102522,100.0,54.0,85.93532654671807,0.601540898535749,0.9561065343409166,0.008658328176187042,0.09751264683672949,0.036904349603420185,11.92379535686506,0.44015533892386915,14.620083914813407,11.932169805428913,6.994367828491294,4.414895731018389,2.154504317808904
Madhya Pradesh,Guna,24.49043927178156,77.2235895968791,458,1241519,2482,144248,793150,285176,162104,91.0,53.0,94.42046396390228,0.09730016214008806,3.963129037896319,0.04260909418220744,1.0852834310228034,0.2634675748015133,0.004188417575566704,0.1235583184792178,15.9403118276885,6.811011349806165,6.437597813646026,4.085640251981645,3.3947929914886523
Madhya Pradesh,Gwalior,26.04074441964285,78.12782433035713,421,2032036,15779,306859,1218319,519728,291451,86.0,67.0,90.31823255099812,0.20270310171670186,6.975024064534289,0.21461233954516556,0.8886653582908963,1.2199587015190676,0.010678944664366183,0.17012493873140044,11.59664494132978,10.082055632872645,9.501898588410835,8.204529841006753,9.544466731888608
Madhya Pradesh,Harda,22.227659781121783,77.07022571819435,448,570465,986,95066,347774,138882,83417,93.0,62.0,92.46176364895304,0.11972688946736433,6.773421682311797,0.01630249007388709,0.27573996651854193,0.11849982032201802,0.009641257570578389,0.2249042447827649,15.786945737249436,10.650434294829656,8.161061590106316,5.598765919030966,4.7550682338092605
Madhya Pradesh,Hoshangabad,22.595268801996703,78.02168094841929,449,1241350,2871,198076,730768,318232,191501,91.0,65.0,94.67136585169372,0.3587223587223587,4.210657751641358,0.12486405929028879,0.31320739517460827,0.25190316993595685,0.008619647963910258,0.06065976557779836,12.865267652152898,11.686953719740604,9.641277641277641,7.217062069521087,6.828775123857091
Madhya Pradesh,Indore,22.680265752128648,75.9133801324502,439,3276697,48691,593576,1877270,894464,493096,93.0,70.0,83.26143674560083,0.5652948685826,12.669526660536508,0.3508411061504924,2.1871720210931924,0.784204337477649,0.021973346940531883,0.1595509136181954,13.074538170602898,11.737765194645705,11.054088919420991,9.157880634065341,11.678162491069513
Madhya Pradesh,Jabalpur,23.18525572327043,79.98328754716981,451,2463289,20443,452023,1387369,679185,391903,93.0,71.0,87.6496830051204,0.9394756360297147,8.26748302777303,0.17537528077298278,1.3692262661831398,0.5381422967422823,0.8529246872778631,0.2076898001005972,10.87700225186732,12.74353110820533,10.893281299920552,9.052409197621554,9.543013426358012
Madhya Pradesh,Jhabua,22.419578015397768,74.40921616766468,464,1025048,744,125411,684200,220769,119681,99.0,34.0,93.74439050659092,3.748409830564032,1.5348549531339022,0.006341166462448588,0.8654228875135603,0.013755453403157706,0.037851885960462336,0.04897331637152602,9.590575270621473,3.9477175702991465,3.7301667824336033,2.8281602422520704,1.9745416799993758
Madhya Pradesh,Katni,23.724416229116937,80.33819665871127,450,1292042,2179,172416,778414,326582,185857,95.0,61.0,96.02242032379752,0.24441929906303356,2.8816400705240235,0.012151307774824658,0.41345405180326955,0.09032214123070302,0.20455991368701637,0.131032892119606,15.359175630513558,12.51716275477113,8.687178899757129,6.264115253219322,4.146769222672328
Madhya Pradesh,Mandla,22.70348712446353,80.38600543633753,454,1054905,912,143803,614794,278553,160510,101.0,57.0,80.5302847175812,1.1802010607590256,1.5696200131765419,0.028154193979552662,0.1695887307387869,0.041330735943047,16.16572108388907,0.3150994639327712,14.855460918281741,10.961366189372503,7.788947819945872,5.504381911167356,3.362956853934714
Madhya Pradesh,Mandsaur,24.19278764044944,75.43588667736759,433,1340411,2324,239885,781000,346861,211815,96.0,62.0,88.97181536110939,0.08355646141370072,9.366380908542231,0.018054163984031764,1.4196392002154563,0.06333878191092135,0.005744506722191925,0.07147061610207615,18.26984410005588,11.132331799724113,8.187861782692025,5.760844994557639,3.9201409120038555
Madhya Pradesh,Morena,26.37313504531724,77.88447341389724,419,1965970,1781,131486,1254302,452484,257704,84.0,60.0,95.39794605207608,0.05554509987436227,3.873863792428165,0.16449894962791903,0.3398322456599033,0.028332070174010796,0.004679623798938946,0.13530216636062606,14.699054410799759,11.609231066598168,8.660050763745124,5.889713474773267,3.6117031287354338
Madhya Pradesh,Neemuch,24.70311893333336,75.06608186666664,432,826067,1945,145258,476995,217403,131227,95.0,62.0,89.737031015644,0.18255177848770138,8.14994425391645,0.027116444549897284,1.7147519511129243,0.13437166718922317,0.013921388943027625,0.04031150015676695,16.66402362036009,10.070490650274131,8.369054810324101,6.472235302947582,5.125855408822771
Madhya Pradesh,Panna,24.451325840092657,80.21133001158752,426,1016520,653,76097,635347,235035,144827,91.0,54.0,95.8906858694369,0.041120686262936294,3.464171880533585,0.003639869358202495,0.4657065281548814,0.01829772163853146,0.021445716759139023,0.09493172785582182,16.89164994294259,9.763801991106915,6.921555896588361,4.712450320702003,2.9310785818281984
Madhya Pradesh,Raisen,23.292518206521724,78.16305495923909,446,1331597,1141,194373,832939,316319,181524,90.0,62.0,89.75951432753303,0.12954369828108656,9.036592903108073,0.018999742414559363,0.798815257168648,0.16987121478945957,0.014268581259945765,0.07239427544519851,17.8718486148587,10.822193201096129,8.854630943145711,5.213213907811447,3.6335317667432414
Madhya Pradesh,Rajgarh,23.785499026425583,76.66431223922116,442,1545814,1611,231130,935230,363218,246447,96.0,52.0,92.75883126948003,0.08041070917975901,6.917261714540042,0.007827591159091585,0.10344064680485492,0.029757784571753137,0.003234541801277515,0.09923574246319415,15.508851647093378,6.693172658547536,6.235290921158691,4.678182498023695,3.331513364479814
Madhya Pradesh,Ratlam,23.503562290502792,75.14895782122909,434,1455069,3644,213825,876905,363858,213560,97.0,57.0,87.07786366144836,0.27462615174950467,10.38239423697433,0.01202692106010093,2.017292650726529,0.09298528111038033,0.008453207373670939,0.13435788955712755,15.443597520117603,8.892499256049026,7.660186561599485,5.945216343692293,4.617787884973152
Madhya Pradesh,Rewa,24.861184625158856,81.57572465057183,430,2365106,3406,251132,1460075,540235,362228,93.0,61.0,95.92965389289105,0.08304067555534508,3.6114237585968665,0.041689463389801555,0.027694318986125784,0.035178127322834575,0.00980928550348272,0.2615104777544854,14.560108510992741,13.231161732285996,8.721554129074976,7.637501236731039,5.174017570459844
Madhya Pradesh,Sagar,23.800318709677374,78.71940357771273,427,2378458,4546,366494,1470688,569166,335432,89.0,65.0,92.42530244385227,0.23460578240187552,4.350717986191053,0.04166565060219689,2.6484386102256168,0.174314618967415,0.00706339990027152,0.11789150785929371,14.620901441185843,12.490403446266447,9.003186097883587,5.797832040759181,4.908768622359529
Madhya Pradesh,Satna,24.62777621776502,80.75547048710598,429,2228935,3754,294702,1365647,535086,326049,93.0,62.0,96.84548898913606,0.09995805171528108,2.6681352305024597,0.016330669131221862,0.14065013111643004,0.052177385163766556,0.07577609934789484,0.1014834438868787,15.206679423132572,13.887170330224974,8.855036149551243,6.64402506129609,4.733157315040591
Madhya Pradesh,Sehore,22.9297199679658,77.06780202883085,445,1311332,1566,212138,817608,305605,187611,92.0,60.0,88.73473689347931,0.10706670774449185,10.522125594433751,0.027224226969219084,0.475241967709169,0.048805336863586034,0.005033050364057309,0.07976622243642342,14.78534802780684,10.392791451745248,9.203390140711887,5.913147852717695,3.862866154413985
Madhya Pradesh,Seoni,22.33230487804874,79.66053863928111,456,1379131,1182,228695,809922,363037,205237,98.0,63.0,83.02706559420389,0.13465000786727294,5.781829282352438,0.5284487115437185,0.36124197048721257,0.02610339409381705,9.811613255013484,0.32904778443817156,16.216733580783842,10.995039630027895,8.42008482152892,6.119650707583253,4.059367819300705
Madhya Pradesh,Shahdol,23.44859864559819,81.4596831828442,460,1066063,1733,113184,645619,269145,150655,97.0,57.0,93.52852504964528,0.22250092161532667,3.9796897556711,0.025139227231411276,0.16293596157075144,0.08554841505614584,1.8242824298376363,0.17137823937234478,15.193473556440848,12.046849013613642,7.541955775596752,5.714015025378425,4.363062970950122
Madhya Pradesh,Shajapur,23.566620317220547,76.33555181268885,436,1512681,1382,232735,901161,369741,240768,94.0,59.0,87.32859076037843,0.053877849989521914,11.550617744256721,0.011833294660275365,0.909312670682054,0.041714016372255615,0.004363114232280302,0.0996905494284651,17.929424644059125,9.336072840208875,7.362160296850427,5.022010589146026,3.21753231514113
Madhya Pradesh,Sheopur,25.78014810996563,77.16911116838484,418,687861,273,74770,449974,155063,82416,90.0,48.0,92.85335263955945,0.03343698799612131,6.018076326467121,0.02922101994443645,0.05509834108926077,0.9285306188314209,0.0058151283471515325,0.07646893776504265,13.216478329197322,6.252571377066006,5.389460952140039,3.5954938570437927,2.484658964529171
Madhya Pradesh,Shivpuri,25.37802451874367,77.74861600810549,423,1726050,1852,148128,1106084,389652,227989,88.0,52.0,95.52150864691058,0.06471423191680427,2.966310361808754,0.1981981981981982,0.705136004171374,0.41429854291590623,0.004171373946293561,0.1256626401320935,15.12627096549926,7.24874713942238,4.9062309898322765,3.389762753106804,2.5962167955737088
Madhya Pradesh,Sidhi,24.17547189952905,82.1053783359498,462,1127033,837,102228,721531,253685,150959,96.0,53.0,95.60900168850424,0.04534028728528801,3.0539478435857688,0.008163026282282772,0.008251754828829325,0.01135725395795864,1.1140756304385053,0.14986251511712612,16.4635818117127,11.476505124517205,7.125967030246675,5.398688414624949,2.933986848654831
Madhya Pradesh,Tikamgarh,25.14099852104666,78.89357064846428,424,1445166,1090,132725,898323,343824,201875,90.0,52.0,95.73121703665876,0.04068736740277588,3.0545279919400263,0.007542386134188044,1.0773156855337034,0.017368246969552286,0.0026986519195718694,0.0686426334414178,14.00863291829451,9.911041361338421,5.400971237906234,4.030332847575988,2.42421977821233
Madhya Pradesh,Ujjain,23.319288862745065,75.80383717647058,435,1986864,7501,323379,1156749,508302,320502,96.0,62.0,86.47818874366841,0.23449013118160075,11.733717053608098,0.04756238977604909,1.2392393238792387,0.16312138123193132,0.010619750521424717,0.09306122613324315,14.42141988581,8.973689190603887,8.015797759685615,6.018831686517044,5.6012892679116435
Madhya Pradesh,Umaria,23.59601063063061,80.90879477477475,431,644758,839,67975,403030,158140,82984,95.0,55.0,96.23998461438245,0.10344966638645818,2.4762779213286223,0.010856786577289465,0.03412132924290974,0.029468420709785684,0.9349244212557271,0.17091684011675698,14.081407287695539,11.609627177948937,6.733999423039341,4.2211186212501435,2.8140790808334293
Madhya Pradesh,Vidisha,23.82838307984792,77.9013507604563,443,1458875,1926,181510,919239,335690,203005,90.0,59.0,88.24546311370062,0.09000085682460801,10.250912518207523,0.020221060748864705,1.2674149601576556,0.06265101533716048,0.004798217804815354,0.05853825721874732,16.589563876274525,8.475709022363121,7.129260560363293,4.495313169394225,4.10000856824608
Maharashtra,Akola,20.746310479041902,77.12122320359276,501,1813906,6163,314490,998769,483200,327932,95.0,78.0,61.073120657851064,0.24714621375087792,19.69523227774758,18.084343951671144,0.5625980618620811,0.08291499118476922,0.021445433225315978,0.23319841270716346,12.78131281334314,15.17520753556138,16.06428337521349,11.341436656585293,6.206165038320618
Maharashtra,Amravati,21.16520991810736,77.67583503184723,503,2888445,9438,512492,1540590,783549,553265,95.0,78.0,71.1516750362219,0.25006534657921475,14.589510965242544,13.29057676362195,0.39329119993629796,0.07761961886066725,0.11383287547452002,0.13342819406289544,11.293100612959568,16.03115170965693,18.17988571705537,12.009091396928104,7.03745440886013
Maharashtra,Bhandara,21.211792649727748,80.10950199637024,506,1200334,2932,227025,626978,333120,232754,98.0,75.0,84.08926182212618,0.17870026176047665,2.207885471876994,12.867918429370492,0.08472641781370852,0.06923073077993291,0.29616756669393685,0.20610929957828403,9.593163236232582,17.403655982418226,17.031509563171586,12.808851536322392,5.586861656838846
